"","Id","Nombre","Razon_social","Clase_actividad","Estrato","Tipo_vialidad","Calle","Num_Exterior","Num_Interior","Colonia","CP","Ubicacion","Telefono","Correo_e","Sitio_internet","Tipo","Longitud","Latitud","tipo_corredor_industrial","nom_corredor_industrial","numero_local"
"2","55770","110 SENSACION","SENBIS SA DE CV","Comercio al por menor de ropa, excepto de bebé y lencería","0 a 5 personas","AVENIDA","PASEO MORELOS","71","","ROMERO","21410","TECATE, Tecate, BAJA CALIFORNIA","","","","Fijo","-116.63444610","32.57289858","","",""
"21000","8677668","2330 NOUTLET BOUTIQUE","","Comercio al por menor de ropa, excepto de bebé y lencería","0 a 5 personas","AVENIDA","RIO PANUCO","2330","","REVOLUCION","22015","TIJUANA, Tijuana, BAJA CALIFORNIA","","","","Fijo","-117.01976250","32.52088156","","",""
"3","6286052","3078 MILANO","MILANO OPERADORA SA DE CV","Comercio al por menor de ropa, excepto de bebé y lencería","11 a 30 personas","AVENIDA","AVENIDA DE LA REFORMA","451","0","PRIMERA SECCION","21000","MEXICALI, Mexicali, BAJA CALIFORNIA","","","","Fijo","-115.49044060","32.66293806","","",""
"4","6703582","3086 MILANO","MILANO OPERADORA SA DE CV","Comercio al por menor de ropa, excepto de bebé y lencería","6 a 10 personas","CALLE","BENITO JUÁREZ","82","0","MACHADO DEL ROSARITO CENTRO","22710","PLAYAS DE ROSARITO, Playas de Rosarito, BAJA CALIFORNIA","","","WWW.MILANO.COM","Fijo","-117.05965473","32.35154402","","",""
"5","6286754","3323 MILANO","MILANO OPERADORA SA DE CV","Comercio al por menor de ropa, excepto de bebé y lencería","11 a 30 personas","AVENIDA","NIÑOS HÉROES (B)","859","0","ZONA CENTRO","22000","TIJUANA, Tijuana, BAJA CALIFORNIA","","","WWW.MILANO.COM","Fijo","-117.04012417","32.53406694","","",""
"6","6286755","3329 MILANO","MILANO OPERADORA SA DE CV","Comercio al por menor de ropa, excepto de bebé y lencería","11 a 30 personas","AVENIDA","MIRAMAR","542","0","ZONA CENTRO","22800","ENSENADA, Ensenada, BAJA CALIFORNIA","","","WWW.MILANO.COM","Fijo","-116.62305812","31.86705769","","",""
"7","6283637","3355 MILANO","MILANO OPERADORA SA DE CV","Comercio al por menor de ropa, excepto de bebé y lencería","11 a 30 personas","BOULEVARD","DIAZ ORDAZ","270","0","CONTRERAS","22460","TIJUANA, Tijuana, BAJA CALIFORNIA","","","WWW.MILANO.COM","Fijo","-116.96821023","32.49972571","","",""
"8","6283613","3377 MILANO","MILANO OPERADORA SA DE CV","Comercio al por menor de ropa, excepto de bebé y lencería","11 a 30 personas","AVENIDA","CONSTITUCIÓN","937","0","ZONA CENTRO","22000","TIJUANA, Tijuana, BAJA CALIFORNIA","","","WWW.MILANO.COM","Fijo","-117.03847525","32.53352705","","",""
"9","6287140","3412 MILANO","MILANO OPERADORA SA DE CV","Comercio al por menor de ropa, excepto de bebé y lencería","11 a 30 personas","AVENIDA","PASEO MORELOS","70","","CENTRO","21400","TECATE, Tecate, BAJA CALIFORNIA","","","WWW.MILANO.COM","Fijo","-116.63109804","32.57317763","","",""
"10","7812454","4 ELEMENTOS BOUTIQUE","","Comercio al por menor de ropa, excepto de bebé y lencería","0 a 5 personas","AVENIDA","RIVEROLL","888","","ZONA CENTRO","22800","ENSENADA, Ensenada, BAJA CALIFORNIA","3310928877","","","Fijo","-116.62002023","31.87026927","","",""
"11","8093861","4 ESTACIONES","","Comercio al por menor de ropa, excepto de bebé y lencería","0 a 5 personas","CALLE","SEPTIMA","348","","CENTRO","22800","ENSENADA, Ensenada, BAJA CALIFORNIA","","","","Fijo","-116.62579571","31.87008207","CENTRO Y PLAZA COMERCIAL","DE PARQUE","348"
"12","6959769","4SEASONS FASHION","","Comercio al por menor de ropa, excepto de bebé y lencería","0 a 5 personas","AVENIDA","PASEO ENSENADA","2269","","JARDINES DEL SOL","22606","TIJUANA, Tijuana, BAJA CALIFORNIA","6645713848","","","Fijo","-117.11621955","32.51503739","","",""
"13","8301418","5 TA AVE","","Comercio al por menor de ropa, excepto de bebé y lencería","0 a 5 personas","CARRETERA","TRANSPENINSULAR (REFORMA)","3976","52","LOMAS DEL MAR","22890","ENSENADA, Ensenada, BAJA CALIFORNIA","","","","Fijo","-116.59882968","31.82083387","CENTRO Y PLAZA COMERCIAL","MACRO PLAZA DEL MAR","52 Y 53 B"
"14","8552206","51:10 MY LOVE","","Comercio al por menor de ropa, excepto de bebé y lencería","0 a 5 personas","AVENIDA","REVOLUCION","121","5","ZONA CENTRO","22000","TIJUANA, Tijuana, BAJA CALIFORNIA","6646970883","DNUEVO19VALDI@GMAIL.COM","","Fijo","-117.03617301","32.52770427","EDIFICIO COMERCIAL Y DE SERVICIOS","SIN NOMBRE","5"
"15","6908293","5TA AVENIDA","","Comercio al por menor de ropa, excepto de bebé y lencería","0 a 5 personas","AVENIDA","BENITO JUAREZ (QUINTA)","","","ZONA CENTRO","22800","ENSENADA, Ensenada, BAJA CALIFORNIA","","","","Fijo","-116.62013588","31.86571350","","",""
"16","6909151","5TA.AVENIDA","","Comercio al por menor de ropa, excepto de bebé y lencería","0 a 5 personas","BOULEVARD","GENERAL JUAN ZERTUCHE","920","0","VALLE DORADO","22890","ENSENADA, Ensenada, BAJA CALIFORNIA","","","","Fijo","-116.59805995","31.82958142","CENTRO Y PLAZA COMERCIAL","PLAZA LAGOS","920"
"17","9209618","646 AUTLET","","Comercio al por menor de ropa, excepto de bebé y lencería","0 a 5 personas","AVENIDA","BENITO JUAREZ (QUINTA)","438","","ZONA CENTRO","22800","ENSENADA, Ensenada, BAJA CALIFORNIA","","","","Fijo","-116.62513964","31.86741405","","",""
"18","146894","707 BOUTIQUE","","Comercio al por menor de ropa, excepto de bebé y lencería","0 a 5 personas","AVENIDA","JOSE MARIA MORELOS Y PAVON ESTE","","","CIUDAD MORELOS","21960","CIUDAD MORELOS (CUERVOS), Mexicali, BAJA CALIFORNIA","6861490300","","","Fijo","-114.85531310","32.63273369","","",""
"19","7004617","8 SEGUNDOS","","Comercio al por menor de ropa, excepto de bebé y lencería","0 a 5 personas","AVENIDA","INGENIERO LUIS ALCERREGA","","","LAZARO CARDENAS","22930","LÁZARO CÁRDENAS, Ensenada, BAJA CALIFORNIA","","","","Fijo","-115.93297934","30.52637099","","",""
"20","6778941","99 Y","TIENDA LA FAVORITA DE TIJUANA SA","Comercio al por menor de ropa, excepto de bebé y lencería","0 a 5 personas","CALLE","DÍAZ MIRÓN (CUARTA)","8082","2","ZONA CENTRO","22000","TIJUANA, Tijuana, BAJA CALIFORNIA","","TIENDALAFAVORITA@HOTMAIL.COM","","Fijo","-117.03858384","32.53440491","","",""
"21","64430","A & M VINTAGE STORE","","Comercio al por menor de ropa, excepto de bebé y lencería","0 a 5 personas","CALLE","I","","1699","NACOZARI","21030","MEXICALI, Mexicali, BAJA CALIFORNIA","","ANANAHEE.4807@HOTMAIL.COM","","Fijo","-115.46038043","32.64527521","","",""
"22","8593334","A&L","INVOCACION YAGALT ","Comercio al por menor de ropa, excepto de bebé y lencería","0 a 5 personas","BOULEVARD","GUSTAVO DIAZ ORDAZ","","4","ANEXA SANTA FE","22117","TIJUANA, Tijuana, BAJA CALIFORNIA","","","","Fijo","-116.96073691","32.49539557","","",""
"23","52502","ACA ENTRE NOS","","Comercio al por menor de ropa, excepto de bebé y lencería","0 a 5 personas","CALZADA","JUSTO SIERRA","","","BUROCRATAS","21020","MEXICALI, Mexicali, BAJA CALIFORNIA","6865544382","","","Fijo","-115.45257463","32.65658828","","",""
"24","8280247","ACCENS FASHION ACCESORIES","","Comercio al por menor de ropa, excepto de bebé y lencería","0 a 5 personas","AVENIDA","ADOLFO LOPEZ MATEOS","1094","","ZONA CENTRO","22800","ENSENADA, Ensenada, BAJA CALIFORNIA","","","","Fijo","-116.62259677","31.86111776","","",""
"25","79266","ACCES Y MAS","","Comercio al por menor de ropa, excepto de bebé y lencería","0 a 5 personas","AVENIDA","JOSE MARIA MORELOS Y PAVON ESTE","0","0","CIUDAD MORELOS CUERVOS","21960","CIUDAD MORELOS (CUERVOS), Mexicali, BAJA CALIFORNIA","6861203785","","","Fijo","-114.85282734","32.63324340","","",""
"26","95708","ACCESORIOS FRIDA","TIENDA DE ROPA ","Comercio al por menor de bisutería y accesorios de vestir","0 a 5 personas","CALLE","PRIMERA","","","HIDALGO","22880","ENSENADA, Ensenada, BAJA CALIFORNIA","","","","Fijo","-116.59159862","31.86119980","","",""
"27","9049165","ACCESORIOS GYM TIME BOUTIQUE","","Comercio al por menor de ropa, excepto de bebé y lencería","0 a 5 personas","CALLE","OAXTEPEC","12175","","HACIENDA REMOSA","22030","TIJUANA, Tijuana, BAJA CALIFORNIA","","","","Fijo","-116.99636308","32.48825013","CENTRO Y PLAZA COMERCIAL","PLAZA OAXTEPEC","12175"
"28","6189809","ACCESORIOS MIROS","MINERVA MIROSLAVA GARCIA ","Comercio al por menor de ropa, excepto de bebé y lencería","0 a 5 personas","AVENIDA","ELPIDIO BERLANGA","","","VICENTE GUERRERO","22920","VICENTE GUERRERO, Ensenada, BAJA CALIFORNIA","","","","Fijo","-115.98946694","30.73302072","","",""
"29","7622251","ACCESORIOS Y NOVEDADES","","Comercio al por menor de ropa, excepto de bebé y lencería","0 a 5 personas","BOULEVARD","GUSTAVO DIAZ ORDAZ","1665","","LOPEZ OESTE","21060","TIJUANA, Tijuana, BAJA CALIFORNIA","6645779504","","","Fijo","-116.97859229","32.50616291","MERCADO PUBLICO","MERCADO DE TODOS","MZ 13 L 6"
"30","8350074","ACCESORIOS Y NOVEDADES FER","","Comercio al por menor de ropa, excepto de bebé y lencería","0 a 5 personas","BOULEVARD","GUSTAVO DIAZ ORDAZ","1665","6","ANAHUAC","21060","TIJUANA, Tijuana, BAJA CALIFORNIA","6644102916","","","Fijo","-116.97859229","32.50616291","MERCADO PUBLICO","MERCADO DE TODOS","6"
"31","106669","ACCESORIOS Y ROPA EL ARCA","","Comercio al por menor de bisutería y accesorios de vestir","0 a 5 personas","BOULEVARD","CASA BLANCA","26135","3","FRACC VILLAS DEL SOL","22236","TIJUANA, Tijuana, BAJA CALIFORNIA","","","","Fijo","-116.85131155","32.49445758","CENTRO Y PLAZA COMERCIAL","PLAZA PASEO 2000","DPB"
"32","7049063","ACCESORIOS YAOS","","Comercio al por menor de ropa de cuero y piel y de otros artículos de estos materiales","0 a 5 personas","BOULEVARD","CORREDOR 2000","23911","0","REAL DE SAN FRANCISCO","22236","TIJUANA, Tijuana, BAJA CALIFORNIA","","","","Semifijo","-116.85056574","32.48408951","","",""
"33","6948311","ACESORIOS Y ROPA PARA BEBE ALMENDRA","","Comercio al por menor de ropa de bebé","0 a 5 personas","CALLE","GUERRERO","4401","","AMPLIACION LUCIO BLANCO","22706","PLAYAS DE ROSARITO, Playas de Rosarito, BAJA CALIFORNIA","","","","Fijo","-117.05208682","32.37499325","","",""
"34","7345173","ACUARIO BOUTIQUE","","Comercio al por menor de ropa, excepto de bebé y lencería","0 a 5 personas","AVENIDA","LAS TORRES","192","4","LAS TORRES","22470","TIJUANA, Tijuana, BAJA CALIFORNIA","","","","Fijo","-116.89974806","32.53916975","","",""
"35","113348","AD HOC","","Comercio al por menor de ropa, excepto de bebé y lencería","0 a 5 personas","BOULEVARD","BOULEVARD DE LOS INSURGENTES","18015","","MACRO PLAZA","22115","TIJUANA, Tijuana, BAJA CALIFORNIA","","ADHOCBOUTIQUE@HOTMAI.COM","","Fijo","-116.93241320","32.49567583","CENTRO Y PLAZA COMERCIAL","MACROPLAZA INSURGENTES","M11"
"36","9165938","ADELINS BOUTIQUE","","Comercio al por menor de ropa, excepto de bebé y lencería","0 a 5 personas","CALLE","MARGARITAS","850","","LOMAS DEL MATAMOROS","22206","TIJUANA, Tijuana, BAJA CALIFORNIA","","","","Fijo","-116.87603413","32.51484705","","",""
"37","7345207","ADRYS BOUTIQUE","","Comercio al por menor de ropa, excepto de bebé y lencería","0 a 5 personas","CALLE","EJIDO FRANCISCO VILLA","","","BUENOS AIRES NORTE","22200","TIJUANA, Tijuana, BAJA CALIFORNIA","","","","Fijo","-116.89600427","32.51407057","","",""
"38","9168437","AIKO SEWING FACTORY","","Confección en serie de otra ropa exterior de materiales textiles","0 a 5 personas","CALLEJON","FELIX PARRA","12647","","LIBERTAD","22400","TIJUANA, Tijuana, BAJA CALIFORNIA","6648566197","","","Fijo","-117.00105010","32.53949654","","",""
"39","8849599","AKI JEANS","","Comercio al por menor de ropa, excepto de bebé y lencería","0 a 5 personas","BOULEVARD","GUSTAVO DIAZ ORDAZ","785","","LA MESA","22140","TIJUANA, Tijuana, BAJA CALIFORNIA","","","","Fijo","-116.96767179","32.49978973","","",""
"40","8677814","AL HABIBI","","Comercio al por menor de ropa, excepto de bebé y lencería","0 a 5 personas","CALLE","BENITO JUAREZ (SEGUNDA)","7971","527","ZONA CENTRO","22000","TIJUANA, Tijuana, BAJA CALIFORNIA","","ALHABIBITJ17@GMAIL.COM","","Fijo","-117.04108954","32.53499918","CENTRO Y PLAZA COMERCIAL","PLAZA DE LA TECNOLOGIA","527"
"41","7369289","ALANEL BOUTIQUE","","Comercio al por menor de ropa, excepto de bebé y lencería","0 a 5 personas","AVENIDA","VENECIA","","","VILLA FONTANA 4 SECCION","22205","TIJUANA, Tijuana, BAJA CALIFORNIA","","","","Fijo","-116.87295045","32.51050175","","",""
"42","106656","ALASKA PIEL","","Comercio al por menor de ropa de cuero y piel y de otros artículos de estos materiales","0 a 5 personas","BOULEVARD","CASA BLANCA","26135","2","FRANCISCO VILLA","22236","TIJUANA, Tijuana, BAJA CALIFORNIA","","","","Fijo","-116.85131155","32.49445758","CENTRO Y PLAZA COMERCIAL","PLAZA PASEO 2000","2"
"43","7344783","ALBAS PLACE","","Comercio al por menor de ropa, excepto de bebé y lencería","0 a 5 personas","BOULEVARD","ALBERTO LIMON PADILLA","1453","","XICOTENCATL LEYVA ALEMAN","22436","TIJUANA, Tijuana, BAJA CALIFORNIA","","","","Fijo","-116.93037915","32.53684939","","",""
"44","8737882","ALDO CONTI NO 247 CACHANILLA","27 MICRAS INTERNACIONAL SA DE CV","Comercio al por menor de ropa, excepto de bebé y lencería","0 a 5 personas","BOULEVARD","ADOLFO LÓPEZ MATEOS","0","0","JABONERA","21100","MEXICALI, Mexicali, BAJA CALIFORNIA","","NMENDOZA@ALDOCONTI.COM","WWW.ALDOCONTI.COM","Fijo","-115.47940677","32.65756056","","",""
"45","9035397","ALED BOUTIQUE","","Comercio al por menor de ropa, excepto de bebé y lencería","0 a 5 personas","CALLE","LAS TORRES","21804","9","LOMAS DEL MATAMOROS","22206","TIJUANA, Tijuana, BAJA CALIFORNIA","","","","Fijo","-116.87931750","32.51376441","CENTRO Y PLAZA COMERCIAL","PLAZA DEL PASEO","9"
"46","140158","ALFA","","Comercio al por menor de ropa, excepto de bebé y lencería","0 a 5 personas","CARRETERA","TRANSPENINSULAR","218","","LAZARO CARDENAS","22930","LÁZARO CÁRDENAS, Ensenada, BAJA CALIFORNIA","6161652761","","","Fijo","-115.93133440","30.52724580","","",""
"47","78699","ALFOMBRAS Y ROPA DE SEGUNDA SIN NOMBRE","","Comercio al por menor de artículos usados","0 a 5 personas","CALLE","OCTAVA","0","0","DEL SOL","21720","CIUDAD GUADALUPE VICTORIA (KILÓMETRO CUARENTA Y TRES), Mexicali, BAJA CALIFORNIA","6862020200","","","Fijo","-115.09846491","32.28421983","","",""
"48","69702","ALFREDO FASHION","","Comercio al por menor de ropa, excepto de bebé y lencería","0 a 5 personas","CALLE","SEPTIMA","348","","CENTRO","22800","ENSENADA, Ensenada, BAJA CALIFORNIA","6462047823","CATALINAVALLE_0412@HOTMAIL.COM","","Fijo","-116.62579571","31.87008207","CENTRO Y PLAZA COMERCIAL","DE PARQUE","80 81 Y 81A"
"49","124479","ALHE BOUTIQUE","","Comercio al por menor de ropa, excepto de bebé y lencería","0 a 5 personas","CALLE","CHULA VISTA","4710","2","LAS PALMAS","22106","TIJUANA, Tijuana, BAJA CALIFORNIA","","","","Fijo","-116.98551050","32.50361728","","",""
"50","8567510","ALHE BUTIQUE","","Comercio al por menor de ropa, excepto de bebé y lencería","0 a 5 personas","CALLE","SANTA ISABELA","6670","","LAS PLAZAS","22640","TIJUANA, Tijuana, BAJA CALIFORNIA","","","","Fijo","-116.99491372","32.48123897","","",""
"51","59837","ALICIAS BOUTOQUE","","Comercio al por menor de ropa, excepto de bebé y lencería","0 a 5 personas","BOULEVARD","NUEVO LEON","700","","LOMA ALTA I","21480","TECATE, Tecate, BAJA CALIFORNIA","6653933667","","","Fijo","-116.63496632","32.56671883","TIANGUIS, BAZAR O PULGA","SWAPMEET LOS ENCINOS","451"
"52","7156111","ALLAXI ROPA Y ACCESORIOS","","Comercio al por menor de ropa, excepto de bebé y lencería","0 a 5 personas","AVENIDA","JOSE MARIA MORELOS","","","EL SAUZAL","22760","EL SAUZAL DE RODRÍGUEZ, Ensenada, BAJA CALIFORNIA","","","","Fijo","-116.69666870","31.89690215","","",""
"53","9181438","ALMACEN DE FLORERIA DETALLES Y MAS","","Comercio al por menor de ropa, excepto de bebé y lencería","0 a 5 personas","CALLE","NOVENA","","","GUADALUPE VICTORIA","21720","CIUDAD GUADALUPE VICTORIA (KILÓMETRO CUARENTA Y TRES), Mexicali, BAJA CALIFORNIA","","","","Fijo","-115.10029128","32.28659021","","",""
"54","6252671","ALMACÉN DE MAYOREO EL HALCÓN","DISTRIBUIDORA MAYORISTA GARGU SA DE CV","Comercio al por menor de ropa, excepto de bebé y lencería","31 a 50 personas","AVENIDA","CURTIDORES","1740","","LIBERTAD","21030","MEXICALI, Mexicali, BAJA CALIFORNIA","","ELHALCONMXL@HOTMAIL.COM","","Fijo","-115.45933167","32.64657314","","",""
"55","9077716","ALMACEN DE ROPA","","Comercio al por menor de ropa, excepto de bebé y lencería","0 a 5 personas","AVENIDA","CAMELIAS","","11","CENTRO CIVICO","21150","MEXICALI, Mexicali, BAJA CALIFORNIA","","","","Fijo","-115.47493930","32.65142795","TIANGUIS, BAZAR O PULGA","TIANGUIS EL CABALLITO","A11"
"56","9083516","ALMACEN DE ROPA","","Comercio al por menor de ropa, excepto de bebé y lencería","0 a 5 personas","AVENIDA","CAMELIAS","","3","CENTRO CIVICO","21150","MEXICALI, Mexicali, BAJA CALIFORNIA","","","","Fijo","-115.47493930","32.65142795","TIANGUIS, BAZAR O PULGA","TIANGUIS EL CABALLITO","E3"
"57","78775","ALMACEN DE TIENDA DE ROPA SIN NOMBRE","","Comercio al por menor de ropa, excepto de bebé y lencería","0 a 5 personas","CALLE","OCTAVA","","","GUADALUPE VICTORIA","21720","CIUDAD GUADALUPE VICTORIA (KILÓMETRO CUARENTA Y TRES), Mexicali, BAJA CALIFORNIA","","","","Fijo","-115.09996642","32.28544712","TIANGUIS, BAZAR O PULGA","TIANGUIS MILTON CASTELLANO EVERARDO","SN"
"58","141340","ALMACEN DEL SUR","","Comercio al por menor de ropa, excepto de bebé y lencería","0 a 5 personas","CALLE","GUERRERO","419","0","CONSTITUCION","22710","PLAYAS DE ROSARITO, Playas de Rosarito, BAJA CALIFORNIA","6616131572","","","Fijo","-117.05090209","32.36873182","","",""
"59","96362","ALMACEN FACTORY1","FACTORY1 SA DE CV","Fabricación de ropa exterior de tejido de punto","0 a 5 personas","AVENIDA","MIGUEL HIDALGO Y COSTILLA","325","","OBRERA","22830","ENSENADA, Ensenada, BAJA CALIFORNIA","","","","Fijo","-116.61354399","31.86062810","","",""
"60","7757549","ALMACEN RUGIDO CAMISETAS","RUGIDO CAMISETAS S DE RL DE CV SA DE CV","Comercio al por menor de ropa, excepto de bebé y lencería","0 a 5 personas","BOULEVARD","PLINTA","","","ACAPULCO","22890","ENSENADA, Ensenada, BAJA CALIFORNIA","","","","Fijo","-116.60297875","31.83714103","","",""
"61","9078814","ALMACEN TIENDA LA ECONOMICA","","Comercio al por menor de ropa, excepto de bebé y lencería","0 a 5 personas","CALLE","SEPTIMA","","","GUADALUPE VICTORIA","21720","CIUDAD GUADALUPE VICTORIA (KILÓMETRO CUARENTA Y TRES), Mexicali, BAJA CALIFORNIA","","","","Fijo","-115.10249671","32.28648671","","",""
"62","6423209","ALMACENES IMAGINA","","Comercio al por menor de ropa, excepto de bebé y lencería","0 a 5 personas","CALLE","NINGUNO","","","SEGUNDA SECCION","21100","MEXICALI, Mexicali, BAJA CALIFORNIA","","","","Fijo","-115.48058883","32.65997350","CENTRO Y PLAZA COMERCIAL","LA CACHANILLA","SN"
"63","8356483","ALOM FASHION","ALOM FASHION S DE RL DE CV","Confección en serie de otra ropa exterior de materiales textiles","31 a 50 personas","AVENIDA","SAN JOSE DE SAN MARTIN","800","","LA CIENEGA","22460","TIJUANA, Tijuana, BAJA CALIFORNIA","","ALOMFASHION@HOTMAIL.COM","","Fijo","-116.93857835","32.48823695","","",""
"64","124982","ALOM FASHION","ALOM FASHION S DE RL DE CV","Confección en serie de otra ropa exterior de materiales textiles","101 a 250 personas","CALLE","TERRAZAS","5","0","LAS BRISAS","22115","TIJUANA, Tijuana, BAJA CALIFORNIA","","","","Fijo","-116.96307556","32.49765290","","",""
"65","7048646","ALONDRAS BUTIQUE","","Comercio al por menor de ropa, excepto de bebé y lencería","0 a 5 personas","CALLE","TORREON","1013","","INDUSTRIAL","21403","TECATE, Tecate, BAJA CALIFORNIA","","","","Fijo","-116.60994676","32.57506505","","",""
"66","7017148","ALTA COSTURA Y REPARACION","","Fabricación de ropa exterior de tejido de punto","0 a 5 personas","CALLE","MANUEL SALAZAR","7130","","JARDINES DEL RUBI","22190","TIJUANA, Tijuana, BAJA CALIFORNIA","","","","Fijo","-117.02742889","32.48171934","","",""
"67","7345331","ALTAGRACIA GRAJEDA GUTIERREZ","","Comercio al por menor de ropa, excepto de bebé y lencería","0 a 5 personas","CALLE","MARIANO MATAMOROS","20489","","BUENOS AIRES NORTE","22200","TIJUANA, Tijuana, BAJA CALIFORNIA","","","","Fijo","-116.90141129","32.51316129","","",""
"68","75868","ALTERNATIVA ROPA Y NOVEDADES","","Comercio al por menor de artículos usados","0 a 5 personas","AVENIDA","PASEO A PLAYAS DE TIJUANA","1129","2","MONUMENTAL","22205","TIJUANA, Tijuana, BAJA CALIFORNIA","6643838298","","","Fijo","-117.12011995","32.52599699","","",""
"69","112394","ALTEROS TACTICAL","ALTEROS TACTICAL ","Comercio al por mayor de ropa, bisutería y accesorios de vestir","0 a 5 personas","CALLE","NINGUNO","1900","4","LA PECHUGA","22425","TIJUANA, Tijuana, BAJA CALIFORNIA","6646243241","INFO@ALTEROSTACTICAL.COM","","Fijo","-116.95298334","32.53191784","","",""
"70","6914719","AMARA BOUTIQUE","","Comercio al por menor de ropa, excepto de bebé y lencería","0 a 5 personas","CALLE","MACRISTY DE HERMOSILLO","","","CONSTITUCION","21250","MEXICALI, Mexicali, BAJA CALIFORNIA","","","","Fijo","-115.41859715","32.63903990","","",""
"71","6973013","AMBAR BOUTIQUE","","Comercio al por menor de ropa, excepto de bebé y lencería","0 a 5 personas","CALLE","NOVENA","","","GUADALUPE VICTORIA","21720","CIUDAD GUADALUPE VICTORIA (KILÓMETRO CUARENTA Y TRES), Mexicali, BAJA CALIFORNIA","","","","Fijo","-115.10607548","32.29124584","","",""
"72","8610695","AMBER FASHION","","Confección en serie de otra ropa exterior de materiales textiles","31 a 50 personas","CALLE","M","161","0","ADOLFO RUIZ CORTINES","22810","ENSENADA, Ensenada, BAJA CALIFORNIA","","GARNICAA.LUZ@GMAIL.COM","","Fijo","-116.59015577","31.89322147","","",""
"73","6709361","AMERICAN ROSE","AMERICAN ROSE S DE RL DE CV","Confección en serie de otra ropa exterior de materiales textiles","251 y más personas","BOULEVARD","BOULEVARD DE LOS INSURGENTES","7040","0","KINO","22216","TIJUANA, Tijuana, BAJA CALIFORNIA","","CONTABILIDADAMERICANROSE@GMAIL.COM","","Fijo","-116.91576025","32.49686072","","",""
"74","138084","AMOR MIO","","Comercio al por menor de ropa, excepto de bebé y lencería","0 a 5 personas","CALLE","RIO PRESIDIO","1299","","INDEPENDENCIA","21290","MEXICALI, Mexicali, BAJA CALIFORNIA","6865676019","","","Fijo","-115.42322273","32.63017000","","",""
"75","8370482","AMORE BOUTIQUE","","Comercio al por menor de ropa, excepto de bebé y lencería","0 a 5 personas","BOULEVARD","NINGUNO","","","JABONERA","21100","MEXICALI, Mexicali, BAJA CALIFORNIA","","","","Fijo","-115.48058883","32.65997350","CENTRO Y PLAZA COMERCIAL","LA CACHANILLA","I20B"
"76","7623063","AMORE KIDS BY LITTLES","","Comercio al por menor de ropa, excepto de bebé y lencería","0 a 5 personas","BOULEVARD","CASA BLANCA","26135","8","FRACC VILLAS DEL SOL","22236","TIJUANA, Tijuana, BAJA CALIFORNIA","","","","Fijo","-116.85131155","32.49445758","CENTRO Y PLAZA COMERCIAL","PLAZA PASEO 2000","C-BP"
"77","8320233","AMORE ME","","Comercio al por menor de ropa, excepto de bebé y lencería","0 a 5 personas","CALZADA","MANUEL GOMEZ MORIN (RIO CAJEME)","901","26","RES SAN PEDRO","21259","MEXICALI, Mexicali, BAJA CALIFORNIA","6864887771","AMOREME.SHOWROOM@GMAIL.COM","WWW.AMOREME.COM","Fijo","-115.41179874","32.65124927","CENTRO Y PLAZA COMERCIAL","LA GRAN VIA","26"
"78","8313824","ANA BERTHA","","Comercio al por menor de ropa, excepto de bebé y lencería","0 a 5 personas","BOULEVARD","PARALELO 28 (MATAMOROS Y/O CUCAPAH)","2237","","LOMAS DEL MATAMOROS","22205","TIJUANA, Tijuana, BAJA CALIFORNIA","","","","Fijo","-116.87219475","32.51371669","CENTRO Y PLAZA COMERCIAL","SWAP MEET CUCAPAH","E 1 E 2 E 3"
"79","83196","ANAID BOUTIQUE","","Comercio al por menor de ropa, excepto de bebé y lencería","0 a 5 personas","CALZADA","FRANCISCO L. MONTEJANO","","","REFORMA","21280","MEXICALI, Mexicali, BAJA CALIFORNIA","6865667448","ANAIDBOUTIQUE@MXLI.COM","","Fijo","-115.45233610","32.63096369","","",""
"80","7155990","ANARTS","","Comercio al por menor de ropa, excepto de bebé y lencería","0 a 5 personas","CALLE","PRINCIPAL","210","","FRANCISCO ZARCO (GUADALUPE)","22750","FRANCISCO ZARCO (VALLE DE GUADALUPE), Ensenada, BAJA CALIFORNIA","","","","Fijo","-116.57626654","32.09346904","","",""
"81","8677599","AND&Y YESS BOUTIQUE","","Comercio al por menor de ropa, excepto de bebé y lencería","0 a 5 personas","CALLE","LAGO DE CHAPALA","489","0","VALLE DORADO","22890","ENSENADA, Ensenada, BAJA CALIFORNIA","6461013992","","","Fijo","-116.59355992","31.83232646","","",""
"82","8956139","ANDE BADI","ANTARTICO COMERCIALIZADORA ","Comercio al por menor de ropa, excepto de bebé y lencería","0 a 5 personas","BOULEVARD","GUSTAVO DIAZ ORDAZ","14517","11","LAS FUENTES","22117","TIJUANA, Tijuana, BAJA CALIFORNIA","6648389420","","","Fijo","-116.96573242","32.49834285","CENTRO Y PLAZA COMERCIAL","PLAZA 5 Y 10","G"
"83","7346180","ANDRADE GUTIEREZ DAVID","","Comercio al por menor de ropa de cuero y piel y de otros artículos de estos materiales","0 a 5 personas","AVENIDA","SONORA","6135","0","DURANGO","22610","TIJUANA, Tijuana, BAJA CALIFORNIA","","","","Fijo","-116.97032261","32.49239023","","",""
"84","6779174","ANDRE BADI","ANTARTICO COMERCIALIZADORA SA DE CV","Comercio al por menor de ropa, excepto de bebé y lencería","11 a 30 personas","BOULEVARD","GUSTAVO DÍAZ ORDAZ","14517","11","LAS FUENTES","22115","TIJUANA, Tijuana, BAJA CALIFORNIA","","EDGAR.OVANDO@ANDREBADI.COM","WWW.ANDREBADI.COM","Fijo","-116.96542703","32.49817009","","",""
"85","6971658","ANDRE BADI","","Comercio al por menor de ropa, excepto de bebé y lencería","0 a 5 personas","BOULEVARD","GUSTAVO DIAZ ORDAZ","1246","","REYNOSO","22106","TIJUANA, Tijuana, BAJA CALIFORNIA","6645240457","","","Fijo","-116.97527642","32.50386116","","",""
"86","72445","ANDREAS NOVIAS Y QUINCEAÑERAS","","Confección en serie de otra ropa exterior de materiales textiles","0 a 5 personas","AVENIDA","BENITO JUAREZ (QUINTA)","1273","0","OBRERA","22800","ENSENADA, Ensenada, BAJA CALIFORNIA","","","","Fijo","-116.61658704","31.86429420","","",""
"87","8677182","ANGEL BOUTIQUE","","Comercio al por menor de ropa, excepto de bebé y lencería","0 a 5 personas","CALLE","MEXICO","","","CONSTITUCION","22710","PLAYAS DE ROSARITO, Playas de Rosarito, BAJA CALIFORNIA","","","","Fijo","-117.04800549","32.36280199","","",""
"88","131106","ÁNGELES BOUTIQUE","","Comercio al por menor de ropa, excepto de bebé y lencería","6 a 10 personas","CARRETERA","NINGUNO","0","0","PARCELAS","22704","PLAYAS DE ROSARITO, Playas de Rosarito, BAJA CALIFORNIA","6643422871","","","Fijo","-117.05810780","32.37810937","","",""
"89","6973251","ANGY BOUTIQUE","","Comercio al por menor de ropa, excepto de bebé y lencería","0 a 5 personas","BOULEVARD","ANILLO PERIFERICO","1600","0","PLAZA SENDERO","21395","MEXICALI, Mexicali, BAJA CALIFORNIA","","","","Fijo","-115.35629524","32.59417090","CENTRO Y PLAZA COMERCIAL","PLAZA SENDERO","1600"
"90","120614","ANKENLIVEL","","Comercio al por menor de ropa, excepto de bebé y lencería","0 a 5 personas","CALLE","CHOPO","6082","","FRANCISCO VILLA","22615","TIJUANA, Tijuana, BAJA CALIFORNIA","","","","Fijo","-117.05703582","32.51105164","","",""
"91","8677946","ANTARA BOUTIQUE","","Comercio al por menor de ropa, excepto de bebé y lencería","0 a 5 personas","CALLE","JUAN RODRIGUEZ CABRILLO","1861","","OBRERA","22830","ENSENADA, Ensenada, BAJA CALIFORNIA","","","","Fijo","-116.61059259","31.85837938","","",""
"92","71240","ANTONIETTE ROPA AL MAYOREO Y MENUDEO","","Comercio al por menor de ropa, excepto de bebé y lencería","0 a 5 personas","AVENIDA","FRANCISCO MINA","197","","BAHIA","22880","ENSENADA, Ensenada, BAJA CALIFORNIA","","","","Fijo","-116.60084233","31.85839710","","",""
"93","6940827","ANYIS BOUTIQUE","","Comercio al por menor de ropa, excepto de bebé y lencería","0 a 5 personas","CALLE","GRANADA","15000","","CONJUNTO URBANO ESPERANZA","21350","MEXICALI, Mexicali, BAJA CALIFORNIA","","","","Fijo","-115.46268783","32.61226816","","",""
"94","8402978","ANZETY FASHION","","Comercio al por menor de ropa, excepto de bebé y lencería","0 a 5 personas","AVENIDA","PASEO REFORMA","","","REFORMA","22180","TIJUANA, Tijuana, BAJA CALIFORNIA","6644252820","","","Fijo","-116.94763937","32.47393625","","",""
"95","8219227","APPAREL","APPAREL S DE RL DE CV","Confección en serie de otra ropa exterior de materiales textiles","11 a 30 personas","AVENIDA","AVENIDA DE LA CAMPIÑA","9994","","VIEJA TECATE","22225","TIJUANA, Tijuana, BAJA CALIFORNIA","","","","Fijo","-116.91504822","32.46515608","","",""
"96","6971180","APRILS BOUTIQUE","","Comercio al por menor de ropa, excepto de bebé y lencería","0 a 5 personas","AVENIDA","SEXTA Y VIENTOS ALISOS","143","50","LAS LILAS","22105","TIJUANA, Tijuana, BAJA CALIFORNIA","","","","Fijo","-116.96941639","32.50262772","TIANGUIS, BAZAR O PULGA","SWAP MEET LA MESA","50"
"97","8301503","AQUI LOS PANTALONES","","Comercio al por menor de ropa, excepto de bebé y lencería","0 a 5 personas","CALLE","CORAL","","","AVIACION","22840","ENSENADA, Ensenada, BAJA CALIFORNIA","6461454296","","","Fijo","-116.59662539","31.86621943","","",""
"98","8304592","ARMARIO","","Comercio al por menor de ropa, excepto de bebé y lencería","0 a 5 personas","AVENIDA","RUIZ","302","","ZONA CENTRO","22800","ENSENADA, Ensenada, BAJA CALIFORNIA","","","","Fijo","-116.62695717","31.86637633","","",""
"99","8346575","ARMENY","","Comercio al por menor de ropa, excepto de bebé y lencería","0 a 5 personas","CARRETERA","TRANSPENINSULAR","202","","VICENTE GUERRERO","22920","VICENTE GUERRERO, Ensenada, BAJA CALIFORNIA","","","","Fijo","-115.99180177","30.73378335","","",""
"100","7634015","ARMI","ARMI IMAGEN Y MAS S DE RL DE CV SC DE RL DE CV","Comercio al por mayor de ropa, bisutería y accesorios de vestir","0 a 5 personas","CALLE","JOSE MARIA MORELOS Y PAVON","237","","PRIMERA SECCION","21100","MEXICALI, Mexicali, BAJA CALIFORNIA","","","","Fijo","-115.48894190","32.66274836","","",""
"101","151453","ARTESANIAS Y ROPA TIPICA","","Comercio al por menor en tiendas de artesanías","0 a 5 personas","AVENIDA","REVOLUCION","771","28","ZONA CENTRO","22000","TIJUANA, Tijuana, BAJA CALIFORNIA","","","","Fijo","-117.03712237","32.53583436","PASAJE Y ANDADOR COMERCIAL","PASAJE VILLA COLONIAL","28"
"102","8094243","ARTESANIAS Y ROPA TIPICA","","Comercio al por menor en tiendas de artesanías","0 a 5 personas","AVENIDA","MIGUEL NEGRETE","","","ZONA URBANA RIO TIJUANA","22000","TIJUANA, Tijuana, BAJA CALIFORNIA","","","","Fijo","-117.03376065","32.53623466","MERCADO PUBLICO","MERCADO DE LAS ARTESANIAS","SN"
"103","140213","ARTICULOS DE PIEL CUEROS ZAPATERIA","","Comercio al por menor de ropa de cuero y piel y de otros artículos de estos materiales","0 a 5 personas","BOULEVARD","LAZARO CARDENAS","2955","23","PLUTARCO ELIAS CALLES","21399","MEXICALI, Mexicali, BAJA CALIFORNIA","6865610919","MIGUELGONZHER@HOTMAIL.COM","","Fijo","-115.38661295","32.61065462","CENTRO Y PLAZA COMERCIAL","PLAZA NUEVO MEXICALI","23"
"104","156173","ARTICULOS NUEVOS Y USADOS COMO TENIS Y ROPA SIN NOMBRE","","Comercio al por menor de artículos usados","0 a 5 personas","AVENIDA","SEXTA Y VIENTOS ALISOS","143","298","LAS LILAS","22105","TIJUANA, Tijuana, BAJA CALIFORNIA","","","","Fijo","-116.96941639","32.50262772","TIANGUIS, BAZAR O PULGA","SWAP MEET LA MESA","298"
"105","7345632","ASHANTY","","Comercio al por menor de ropa, excepto de bebé y lencería","0 a 5 personas","AVENIDA","RAMON ALANID","15168","","FRACC BUSTAMANTE","22115","TIJUANA, Tijuana, BAJA CALIFORNIA","","","","Fijo","-116.95909137","32.49880034","TIANGUIS, BAZAR O PULGA","SWAP MEET LAS CARPAS","L-38"
"106","7622634","ASL BAJA","ASL BAJA S DE RL DE CV","Confección en serie de otra ropa exterior de materiales textiles","31 a 50 personas","AVENIDA","FRANCISCO I. MADERO","1860","0","NUEVA","21100","MEXICALI, Mexicali, BAJA CALIFORNIA","","","","Fijo","-115.45940148","32.66677620","","",""
"107","9175167","ASLIN MODA ARTESANAL","","Comercio al por menor de ropa de cuero y piel y de otros artículos de estos materiales","0 a 5 personas","BOULEVARD","NINGUNO","","","JABONERA","21100","MEXICALI, Mexicali, BAJA CALIFORNIA","","","","Fijo","-115.48060088","32.65995482","CENTRO Y PLAZA COMERCIAL","PLAZA CACHANILLA SIN NUMERO","SN"
"108","8677780","ATELIA MODA","","Comercio al por menor de ropa, excepto de bebé y lencería","0 a 5 personas","CALLE","GUERRERO","2644","0","CONSTITUCION","22710","PLAYAS DE ROSARITO, Playas de Rosarito, BAJA CALIFORNIA","","","","Fijo","-117.05091485","32.36880460","","",""
"109","6908382","ATELIER","","Comercio al por menor de ropa, excepto de bebé y lencería","0 a 5 personas","CALZADA","CORTEZ","721","","INDEPENDENCIA","22840","ENSENADA, Ensenada, BAJA CALIFORNIA","6461946250","","","Fijo","-116.60188470","31.86096203","","",""
"110","8552141","ATENA","","Comercio al por menor de ropa, excepto de bebé y lencería","0 a 5 personas","CALLE","BENITO JUAREZ (SEGUNDA)","7971","","ZONA CENTRO","22000","TIJUANA, Tijuana, BAJA CALIFORNIA","","","","Fijo","-117.04108954","32.53499918","CENTRO Y PLAZA COMERCIAL","PLAZA DE LA TECNOLOGIA","738"
"111","7633837","ATRAPASUEÑOS","VENTA DE ROPA ","Comercio al por menor de ropa, excepto de bebé y lencería","0 a 5 personas","CALLE","DISTRITO FEDERAL","0","0","AMPLIACION CONSTITUCION","22710","PLAYAS DE ROSARITO, Playas de Rosarito, BAJA CALIFORNIA","","","","Fijo","-117.05071203","32.36543898","","",""
"112","6908480","ATREVIDA PLUS","","Comercio al por menor de ropa, excepto de bebé y lencería","0 a 5 personas","AVENIDA","REFORMA","116","5","BAHIA","22880","ENSENADA, Ensenada, BAJA CALIFORNIA","","LEOPOLDO_RUVALCABA@LIVE.COM.MX","","Fijo","-116.60600871","31.85825218","","",""
"113","64024","ATREVIDA PLUS","","Comercio al por menor de ropa, excepto de bebé y lencería","0 a 5 personas","AVENIDA","PEDRO LOYOLA","205","1","ACAPULCO","22890","ENSENADA, Ensenada, BAJA CALIFORNIA","","","","Fijo","-116.60632678","31.83639820","","",""
"114","59294","AVILA UNIFORMES","","Comercio al por menor de ropa, excepto de bebé y lencería","0 a 5 personas","CALLE","PASEO MIGUEL HIDALGO Y COSTILLA","33","","IGNACIO ALTAMIRANO","22860","ENSENADA, Ensenada, BAJA CALIFORNIA","6461177979","LORIEE_LORENA@HOTMAIL.COM","","Fijo","-116.63047137","31.86265172","","",""
"115","8567724","AW","","Comercio al por menor de ropa, excepto de bebé y lencería","0 a 5 personas","AVENIDA","LAS PALMAS","4474","","LA ESCONDIDA","22440","TIJUANA, Tijuana, BAJA CALIFORNIA","","","","Fijo","-116.98517084","32.50546691","","",""
"116","6284703","AYD APPAREL","APPAREL MODA Y DISEÑO SA DE CV","Comercio al por menor de ropa, excepto de bebé y lencería","0 a 5 personas","AVENIDA","NINGUNO","1850","0","VALLE VERDE","22839","ENSENADA, Ensenada, BAJA CALIFORNIA","","","","Fijo","-116.61060403","31.88125920","","",""
"117","67655","AZALIA","","Comercio al por menor de ropa, excepto de bebé y lencería","0 a 5 personas","CALLE","JUAN RODRIGUEZ CABRILLO","2100","","GRANADOS","22830","ENSENADA, Ensenada, BAJA CALIFORNIA","6461772321","","","Fijo","-116.60884532","31.85766169","","",""
"118","8677947","AZALIA BOUTIQUE","","Comercio al por menor de ropa, excepto de bebé y lencería","0 a 5 personas","CALLE","JUAN RODRIGUEZ CABRILLO","1981","","GRANADOS","22830","ENSENADA, Ensenada, BAJA CALIFORNIA","","","","Fijo","-116.60928867","31.85790302","","",""
"119","8362045","AZUCAR BOUTIQUE","","Comercio al por menor de ropa, excepto de bebé y lencería","0 a 5 personas","CALLE","PASEO DEL LAGO","15407","4","PASEO DE LOS GRANDES LAGOS","22210","TIJUANA, Tijuana, BAJA CALIFORNIA","","","","Fijo","-116.93348740","32.50548262","CENTRO Y PLAZA COMERCIAL","PLAZA EL LAGO","4"
"120","8301233","AZUL CASUAL PARA DAMA","","Comercio al por menor de ropa, excepto de bebé y lencería","0 a 5 personas","AVENIDA","REFORMA","1122","","COMERCIAL MISION","22830","ENSENADA, Ensenada, BAJA CALIFORNIA","","","","Fijo","-116.60869406","31.87123374","CENTRO Y PLAZA COMERCIAL","PLAZA MISION","1122"
"121","8346779","AZUL ROPA Y ACCESORIOS","","Comercio al por menor de ropa, excepto de bebé y lencería","0 a 5 personas","BOULEVARD","BENITO JUAREZ","1400","","JARDINES DEL VALLE","21270","MEXICALI, Mexicali, BAJA CALIFORNIA","","","","Fijo","-115.44965425","32.64014569","CENTRO Y PLAZA COMERCIAL","CENTRO COMERCIAL SORIANA","10"
"122","81993","AZUL ROPA Y ACCESORIOS","","Comercio al por menor de ropa, excepto de bebé y lencería","0 a 5 personas","BOULEVARD","LAZARO CARDENAS","1801","0","HIDALGO","21389","MEXICALI, Mexicali, BAJA CALIFORNIA","6862805740","","","Fijo","-115.45769182","32.62434627","CENTRO Y PLAZA COMERCIAL","WAL MART SUPERCENTER","1801"
"123","92006","B 4 MODA CASUAL","","Comercio al por menor de ropa, excepto de bebé y lencería","0 a 5 personas","BOULEVARD","LAZARO CARDENAS","2200","","PARQUE INDUSTRIAL PROGRESO","21220","MEXICALI, Mexicali, BAJA CALIFORNIA","6865524433","","","Fijo","-115.51060798","32.62214505","CENTRO Y PLAZA COMERCIAL","MACROPLAZA DEL VALLE","A6 Y A7"
"124","84471","B 4 MODA CASUAL","B 4 BOUTIQUE ","Comercio al por menor de ropa, excepto de bebé y lencería","0 a 5 personas","BOULEVARD","LAZARO CARDENAS","2955","30","PLUTARCO ELIAS CALLES","21399","MEXICALI, Mexicali, BAJA CALIFORNIA","6865611166","BETOESQUIVIAS@HOTMAIL.COM","","Fijo","-115.38661295","32.61065462","CENTRO Y PLAZA COMERCIAL","PLAZA NUEVO MEXICALI","30"
"125","146380","B TRENDY","","Comercio al por menor de ropa, excepto de bebé y lencería","0 a 5 personas","AVENIDA","SANTA LUCIA","15035","16","CHIHUAHUA LA MESA","22209","TIJUANA, Tijuana, BAJA CALIFORNIA","","","","Fijo","-116.95645364","32.50245584","","",""
"126","140199","B&M","","Comercio al por menor de ropa, excepto de bebé y lencería","0 a 5 personas","BOULEVARD","LAZARO CARDENAS","2955","10","PLUTARCO ELIAS CALLES","21399","MEXICALI, Mexicali, BAJA CALIFORNIA","6865613806","","","Fijo","-115.38661295","32.61065462","CENTRO Y PLAZA COMERCIAL","PLAZA NUEVO MEXICALI","10"
"127","7004780","B0UTIQUE VANESA","","Comercio al por menor de ropa, excepto de bebé y lencería","0 a 5 personas","AVENIDA","CARRETERA TRANSPENINSULAR","","","RODOLFO SANCHES","22790","RODOLFO SÁNCHEZ TABOADA (MANEADERO), Ensenada, BAJA CALIFORNIA","","","","Fijo","-116.56595354","31.70619944","","",""
"128","8320659","B4","","Comercio al por menor de ropa, excepto de bebé y lencería","0 a 5 personas","BOULEVARD","ANILLO PERIFERICO","1600","0","PLAZA SENDERO","21395","MEXICALI, Mexicali, BAJA CALIFORNIA","6861909791","BETOESQUIVIAS@HOTMAIL.COM","","Fijo","-115.35629524","32.59417090","CENTRO Y PLAZA COMERCIAL","PLAZA SENDERO","B11"
"129","84715","B4 BOUTIQUE","","Comercio al por menor de ropa, excepto de bebé y lencería","0 a 5 personas","BOULEVARD","LAZARO CARDENAS","2000","78","PLUTARCO ELIAS CALLES","21376","MEXICALI, Mexicali, BAJA CALIFORNIA","","","","Fijo","-115.40845726","32.62443833","CENTRO Y PLAZA COMERCIAL","PLAZA CARRANZA","78"
"130","60711","BABY BLUE","","Comercio al por menor de ropa de bebé","0 a 5 personas","AVENIDA","BRASIL","183","2","MADERO","22040","TIJUANA, Tijuana, BAJA CALIFORNIA","6646340007","","","Fijo","-117.03023008","32.52162997","","",""
"131","8333787","BABY MAA","","Comercio al por menor de ropa de bebé","0 a 5 personas","BOULEVARD","GUSTAVO DIAZ ORDAZ","15034","31","GUADALAJARA","22115","TIJUANA, Tijuana, BAJA CALIFORNIA","","","","Fijo","-116.95583656","32.49272905","","",""
"132","6959118","BABY PALACE KIDS BOUTIQUE","","Comercio al por menor de ropa de bebé","0 a 5 personas","AVENIDA","GUANAJUATO","2533","","MADERO","22040","TIJUANA, Tijuana, BAJA CALIFORNIA","","","","Fijo","-117.02553805","32.51923623","","",""
"133","107592","BABY PHAT FASHION BOUTIQUE","BABY PHAT FASHION BOUTIQUE SA DE CV","Comercio al por menor de ropa de bebé","0 a 5 personas","BOULEVARD","RUTA MATAMOROS","7773","114","MARIANO MATAMOROS NORTE","22206","TIJUANA, Tijuana, BAJA CALIFORNIA","","","","Fijo","-116.88616828","32.49603763","CENTRO Y PLAZA COMERCIAL","EL TIGRE","114"
"134","6941149","BABY POP S","","Comercio al por menor de ropa de bebé","0 a 5 personas","CALLE","CATARATAS DEL NIAGARA","282","","SANTA MONICA","21330","MEXICALI, Mexicali, BAJA CALIFORNIA","","","","Fijo","-115.48855462","32.61854331","","",""
"135","70791","BABY TOYS","","Comercio al por menor de ropa de bebé","0 a 5 personas","AVENIDA","REFORMA","230","","INDEPENDENCIA","22840","ENSENADA, Ensenada, BAJA CALIFORNIA","6461725989","BABIESANDTOYS@LIVE.COM.MX","","Fijo","-116.60657087","31.86076212","","",""
"136","8319801","BACCS BOLSAS Y ACCESORIOS","","Comercio al por menor de ropa de cuero y piel y de otros artículos de estos materiales","0 a 5 personas","CALLE","RIO PRESIDIO","1300","3","INDEPENDENCIA","21290","MEXICALI, Mexicali, BAJA CALIFORNIA","","","","Fijo","-115.42314766","32.63025135","","",""
"137","8370733","BAJA CALI","","Comercio al por menor de ropa, excepto de bebé y lencería","0 a 5 personas","BOULEVARD","LAZARO CARDENAS","2000","32","PLUTARCO ELIAS CALLES","21376","MEXICALI, Mexicali, BAJA CALIFORNIA","","","","Fijo","-115.40845726","32.62443833","CENTRO Y PLAZA COMERCIAL","PLAZA CARRANZA","32"
"138","8320702","BAJA CALI MENS WEAR","","Comercio al por menor de ropa, excepto de bebé y lencería","0 a 5 personas","BOULEVARD","ANILLO PERIFERICO","1600","","PLAZA SENDERO","21395","MEXICALI, Mexicali, BAJA CALIFORNIA","","","","Fijo","-115.35629524","32.59417090","CENTRO Y PLAZA COMERCIAL","PLAZA SENDERO","C24"
"139","6856058","BAJA GARMENT","","Confección en serie de otra ropa exterior de materiales textiles","51 a 100 personas","CARRETERA","TRANSPENINSULAR (REFORMA)","777","0","VALLE DORADO","22890","ENSENADA, Ensenada, BAJA CALIFORNIA","","BAJAGARMENT17@GMAIL.COM","","Fijo","-116.60074993","31.83149999","","",""
"140","155174","BAJA JEANS","","Comercio al por menor de ropa, excepto de bebé y lencería","0 a 5 personas","BOULEVARD","GUSTAVO DIAZ ORDAZ","1665","","ANAHUAC","21060","TIJUANA, Tijuana, BAJA CALIFORNIA","","","","Fijo","-116.97859229","32.50616291","MERCADO PUBLICO","MERCADO DE TODOS","L16 AL 20"
"141","125770","BAJA KIDS","","Comercio al por menor de ropa de bebé","0 a 5 personas","BOULEVARD","GUSTAVO DIAZ ORDAZ","15352","2","LAS HUERTAS 3RA SECC","22115","TIJUANA, Tijuana, BAJA CALIFORNIA","","","","Fijo","-116.95116274","32.48954180","","",""
"142","8317258","BAJA LEATHER REPARACION DE ARTICULOS DE PIEL Y CALZADO","","Comercio al por menor de ropa de cuero y piel y de otros artículos de estos materiales","0 a 5 personas","CALLE","EMILIANO ZAPATA (QUINTA)","8274","","ZONA CENTRO","22000","TIJUANA, Tijuana, BAJA CALIFORNIA","","BAJALEATHER@HOTMAIL.COM","","Fijo","-117.03528653","32.53208728","","",""
"143","8641656","BAJA MAYA","","Comercio al por menor de ropa, excepto de bebé y lencería","0 a 5 personas","AVENIDA","ALVARADO","716","","ZONA CENTRO","22800","ENSENADA, Ensenada, BAJA CALIFORNIA","6461961259","","","Fijo","-116.61961816","31.86817031","","",""
"144","6948924","BAJA PRODUCE","","Comercio al por menor de ropa, excepto de bebé y lencería","0 a 5 personas","BOULEVARD","BENITO JUAREZ","","","ZONA CENTRO","22710","PLAYAS DE ROSARITO, Playas de Rosarito, BAJA CALIFORNIA","","","","Fijo","-117.05487215","32.33729952","","",""
"145","9291226","BAJA PROPANO","PROPANO SA DE CV","Comercio al por menor de ropa, excepto de bebé y lencería","0 a 5 personas","CARRETERA","LIBRE TIJUANA-ROSARITO","","","ROSAMAR","22710","PLAYAS DE ROSARITO, Playas de Rosarito, BAJA CALIFORNIA","","","","Fijo","-117.05154932","32.40151785","","",""
"146","8333414","BAJA PROPERTY","","Comercio al por menor de ropa, excepto de bebé y lencería","0 a 5 personas","BOULEVARD","GUSTAVO DIAZ ORDAZ","15742","386","LA JOYA ESTE","22115","TIJUANA, Tijuana, BAJA CALIFORNIA","","","","Fijo","-116.94469866","32.48572943","TIANGUIS, BAZAR O PULGA","SWAP MEET SIGLO XXI","324"
"147","8320846","BAJA SOUVENIRS","","Comercio al por menor de ropa, excepto de bebé y lencería","0 a 5 personas","AVENIDA","BENITO JUAREZ","300","","ZONA CENTRO","21400","TECATE, Tecate, BAJA CALIFORNIA","","","","Fijo","-116.62629740","32.57370113","","",""
"148","6948897","BAJA VINTAGE","","Comercio al por menor de ropa, excepto de bebé y lencería","0 a 5 personas","BOULEVARD","BENITO JUAREZ","1","","VILLA FLORESTA","22710","PLAYAS DE ROSARITO, Playas de Rosarito, BAJA CALIFORNIA","","","","Fijo","-117.05987340","32.36514992","","",""
"149","9216402","BAJA ZONE","","Comercio al por menor de ropa, excepto de bebé y lencería","0 a 5 personas","CALLE","TERCERA","337","","ZONA CENTRO","22800","ENSENADA, Ensenada, BAJA CALIFORNIA","","","","Fijo","-116.62765822","31.86664525","","",""
"150","8319615","BAJACAL","","Comercio al por menor de ropa, excepto de bebé y lencería","0 a 5 personas","CALLE","RIO FUERTE","598","4","PROHOGAR","21240","MEXICALI, Mexicali, BAJA CALIFORNIA","","PROMOBAJA1@GMAIL.COM","","Fijo","-115.43900409","32.64978686","","",""
"151","8677324","BAMBINO BAUTIZOS Y CEREMONIAS","BAMBINOS BAUTIZOS Y C EREMONIAS ","Comercio al por menor de ropa de bebé","0 a 5 personas","AVENIDA","GUANAJUATO","9112","","BRASIL","22046","TIJUANA, Tijuana, BAJA CALIFORNIA","","","","Fijo","-117.02565936","32.52046316","CENTRO Y PLAZA COMERCIAL","PLAZA SANTA ROSA","8"
"152","137347","BAMBINO RECUERDOS Y ROPONES","","Comercio al por menor de ropa de bebé","0 a 5 personas","AVENIDA","NORMA","5","","FRACC RESIDENCIAS","21280","MEXICALI, Mexicali, BAJA CALIFORNIA","6862486985","LINADV1@HOTMAIL.COM","","Fijo","-115.45213662","32.62867655","","",""
"153","132202","BAMBOO H","","Comercio al por menor de ropa, excepto de bebé y lencería","0 a 5 personas","BOULEVARD","BENITO JUAREZ","25500","","QUINTAS DEL MAR","22703","PLAYAS DE ROSARITO, Playas de Rosarito, BAJA CALIFORNIA","","","","Fijo","-117.06017679","32.34952840","","",""
"154","8677756","BARATO CHEAP","","Comercio al por menor de ropa, excepto de bebé y lencería","0 a 5 personas","CALZADA","GENERAL LAZARO CARDENAS","86","","POBLADO CHAPULTEPEC","22785","ENSENADA, Ensenada, BAJA CALIFORNIA","","","","Fijo","-116.59701125","31.78145775","","",""
"155","8379466","BARBA ROJA SHOP STORE","","Comercio al por menor de ropa, excepto de bebé y lencería","0 a 5 personas","CALLE","BENITO JUAREZ (SEGUNDA)","7971","825","ZONA CENTRO","22000","TIJUANA, Tijuana, BAJA CALIFORNIA","","","","Fijo","-117.04108954","32.53499918","CENTRO Y PLAZA COMERCIAL","PLAZA DE LA TECNOLOGIA","825"
"156","8093768","BARBIE LOVE VENTA DE ROPA","","Comercio al por menor de ropa, excepto de bebé y lencería","0 a 5 personas","CALLE","INDEPENDENCIA","9415","","ZONA RIO","22010","TIJUANA, Tijuana, BAJA CALIFORNIA","","BARBARAMANCILLAS@GMAIL.COM","","Fijo","-117.02384957","32.52770100","CENTRO Y PLAZA COMERCIAL","PLAZA DEL ZAPATO","9415"
"157","7017344","BARBYE LOVE","BARBYE LOVE ","Comercio al por menor de ropa, excepto de bebé y lencería","0 a 5 personas","AVENIDA","PASEO DE LOS HEROES","10001","0","ZONA URBANA RIO TIJUANA","22010","TIJUANA, Tijuana, BAJA CALIFORNIA","","","","Fijo","-117.02218253","32.52767330","CENTRO Y PLAZA COMERCIAL","PLAZA DEL ZAPATO","10001"
"158","9137350","BARRANCO MENS APPREL","","Comercio al por menor de ropa, excepto de bebé y lencería","0 a 5 personas","BOULEVARD","JOSÉ MARÍA MORELOS Y PAVÓN","1018","1006","FRACCIONAMIENTO BAHIA","22880","ENSENADA, Ensenada, BAJA CALIFORNIA","","","","Fijo","-116.59923320","31.85849280","","",""
"159","106645","BASIC ROOM","","Comercio al por menor de ropa, excepto de bebé y lencería","0 a 5 personas","BOULEVARD","CASA BLANCA","26135","22","FRANCISCO VILLA","22236","TIJUANA, Tijuana, BAJA CALIFORNIA","","","","Fijo","-116.85131155","32.49445758","CENTRO Y PLAZA COMERCIAL","PLAZA PASEO 2000","PA"
"160","8379515","BASIC TIENDA DE ROPA","","Comercio al por menor de ropa, excepto de bebé y lencería","0 a 5 personas","AVENIDA","FRANCISCO I. MADERO","915","","ZONA CENTRO","22000","TIJUANA, Tijuana, BAJA CALIFORNIA","","","","Fijo","-117.03528149","32.53399474","","",""
"161","8312820","BAUTIQUE CITLALY","","Comercio al por menor de ropa, excepto de bebé y lencería","0 a 5 personas","BOULEVARD","BOULEVARD EL REFUGIO","21320","","FLORIDO I","22244","TIJUANA, Tijuana, BAJA CALIFORNIA","","","","Fijo","-116.88028641","32.46150508","","",""
"162","6908181","BAWA KIDS CLOTHING","","Comercio al por menor de ropa, excepto de bebé y lencería","0 a 5 personas","CALLE","JUAN RODRIGUEZ CABRILLO","1545","","OBRERA","22830","ENSENADA, Ensenada, BAJA CALIFORNIA","","","","Fijo","-116.61442679","31.85978137","","",""
"163","8320686","BAZAR DE ROPA","","Comercio al por menor de artículos usados","0 a 5 personas","AVENIDA","GALATEA","348","","VILLAS DEL REY","21353","MEXICALI, Mexicali, BAJA CALIFORNIA","6861191701","","","Fijo","-115.48041799","32.60727271","","",""
"164","8485364","BAZAR DE ROPA","","Comercio al por menor de artículos usados","0 a 5 personas","CALLE","MEXICANIDAD","2000","","GRANJAS FAMILIARES UNIDAS","22476","TIJUANA, Tijuana, BAJA CALIFORNIA","6193439210","","","Fijo","-116.88048898","32.54074671","","",""
"165","8850135","BAZAR DE ROPA DE SEGUNDA","","Comercio al por menor de artículos usados","0 a 5 personas","AVENIDA","OAXACA","","","EJIDO BENITO JUAREZ","21900","BENITO JUÁREZ (EJIDO TECOLOTES), Mexicali, BAJA CALIFORNIA","","","","Fijo","-114.99660307","32.56351974","","",""
"166","8362063","BAZAR DE ROPA DE SEGUNDA","","Comercio al por menor de artículos usados","0 a 5 personas","CALLE","JOSE MARIA PINO SUAREZ","2839","","CHILPANCINGO","22440","TIJUANA, Tijuana, BAJA CALIFORNIA","6643281425","","","Fijo","-116.92559690","32.52515163","","",""
"167","7345420","BAZAR DE ROPA DE SEGUNDA","","Comercio al por menor de artículos usados","0 a 5 personas","CALLE","FRANCISCO I. MADERO","2807","","CHILPANCINGO","22440","TIJUANA, Tijuana, BAJA CALIFORNIA","","","","Fijo","-116.92453205","32.52467422","","",""
"168","8362066","BAZAR DE ROPA DE SEGUNDA","","Comercio al por menor de artículos usados","0 a 5 personas","CALLE","EMILIANO ZAPATA","2640","","EJIDO CHILPANCINGO","22446","TIJUANA, Tijuana, BAJA CALIFORNIA","","","","Fijo","-116.91967788","32.52485670","","",""
"169","8996623","BAZAR DE ROPA DE SEGUNDA","","Comercio al por menor de artículos usados","0 a 5 personas","CALLE","EMILIANO ZAPATA","2618","","EJIDO CHILPANCINGO","22446","TIJUANA, Tijuana, BAJA CALIFORNIA","6647799829","","","Fijo","-116.91871067","32.52497754","","",""
"170","7369141","BAZAR DE ROPA DE SEGUNDA","","Comercio al por menor de artículos usados","0 a 5 personas","BOULEVARD","ALTIPLANO","","","ALTIPLANO","22204","TIJUANA, Tijuana, BAJA CALIFORNIA","","","","Fijo","-116.85059149","32.52171278","","",""
"171","8313627","BAZAR DE ROPA DE SEGUNDA","","Comercio al por menor de artículos usados","11 a 30 personas","CALLE","JOSE MARIA PINO SUAREZ","2827","","EJIDO CHILPANCINGO","22440","TIJUANA, Tijuana, BAJA CALIFORNIA","6644045398","IGNMONTIEL@GMAIL.COM","","Fijo","-116.92517443","32.52522037","","",""
"172","8093834","BAZAR DE ROPA SIN NOMBRE","","Comercio al por menor de artículos usados","0 a 5 personas","AVENIDA","AVENIDA DE TACUBAYA","42","","EMPLEADO POSTAL","22350","TIJUANA, Tijuana, BAJA CALIFORNIA","","","","Fijo","-116.99994413","32.52715138","","",""
"173","93082","BAZAR DE ROPA USADA","BAZAR DE ROPA USADA ","Comercio al por menor de artículos usados","0 a 5 personas","AVENIDA","MONTES DE TOLEDO","365","","VILLAS DEL REY","21600","MEXICALI, Mexicali, BAJA CALIFORNIA","","","","Fijo","-115.48001273","32.59090692","","",""
"174","7345368","BAZAR DE ROPA USADA","","Comercio al por menor de artículos usados","0 a 5 personas","CALLE","JOSE MARIA PINO SUAREZ","2615","","CHILPANCINGO","22440","TIJUANA, Tijuana, BAJA CALIFORNIA","","","","Fijo","-116.91896216","32.52621407","","",""
"175","93072","BAZAR DE ROPA USADA","","Comercio al por menor de artículos usados","0 a 5 personas","AVENIDA","MONTES DE TOLEDO","784","","HACIENDA DEL BOSQUE","21355","MEXICALI, Mexicali, BAJA CALIFORNIA","","","","Fijo","-115.47159027","32.59256703","","",""
"176","7345369","BAZAR DE ROPA USADA","","Comercio al por menor de artículos usados","0 a 5 personas","CALLE","JOSE MARIA PINO SUAREZ","","","CHILPANCINGO","22440","TIJUANA, Tijuana, BAJA CALIFORNIA","","","","Fijo","-116.92137317","32.52582412","","",""
"177","6912115","BAZAR DE ROPA USADA","","Comercio al por menor de artículos usados","0 a 5 personas","CALLE","DECIMA QUINTA (MANUEL OVIEDO)","","","LIBERTAD PARTE BAJA","22480","TIJUANA, Tijuana, BAJA CALIFORNIA","6642844424","MLIZZI08@HOTMAIL.COM","","Fijo","-117.00986564","32.53407562","","",""
"178","8486173","BAZAR DE ROPA Y DISTRIBUIDOR BETERWARE","","Comercio al por menor de artículos usados","0 a 5 personas","BOULEVARD","PARALELO 28 (MATAMOROS Y/O CUCAPAH)","22375","","VILLA FONTANA","22205","TIJUANA, Tijuana, BAJA CALIFORNIA","6648302006","MYT.PLAZASTRELLA@YAHOO.COM","","Fijo","-116.87075609","32.51374332","","",""
"179","6424211","BAZAR ROPA","","Comercio al por menor de artículos usados","0 a 5 personas","CALLE","I. T. R. TIJUANA","","","TECNOLOGICO","22454","TIJUANA, Tijuana, BAJA CALIFORNIA","","","","Fijo","-116.92885334","32.53452137","","",""
"180","93069","BAZAR VENTA DE ROPA USADA","","Comercio al por menor de artículos usados","0 a 5 personas","AVENIDA","MONTES DE TOLEDO","","","CASA MAGNA","21355","MEXICALI, Mexicali, BAJA CALIFORNIA","","","","Fijo","-115.47652963","32.59100582","","",""
"181","8362227","BAZAR VENTA DE SEGUNDA ROPA CALZADO MOBILIARIO Y OTROS","","Comercio al por menor de artículos usados","0 a 5 personas","CALLE","MANUEL J. CLOUTHIER","15843","","CAMPESTRE MURUA","22455","TIJUANA, Tijuana, BAJA CALIFORNIA","","","","Fijo","-116.92751001","32.52428684","","",""
"182","6856243","BBC APPAREL MODE","BBC APPAREL MODE S DE RL DE CV","Confección en serie de otra ropa exterior de materiales textiles","51 a 100 personas","CALLE","ÁGUILA CORONADA","19121","0","BAJA MAQ EL AGUILA","22215","TIJUANA, Tijuana, BAJA CALIFORNIA","","LCIA.GRZ.BBC@HOTMAIL.COM","","Fijo","-116.91200423","32.49632243","OTRO CONGLOMERADO","BAJA MAQ EL AGUILA","19121"
"183","6285033","BC FASHION","BC FASHION S DE RL DE CV","Confección en serie de otra ropa exterior de materiales textiles","31 a 50 personas","CARRETERA","TRANSPENINSULAR (REFORMA)","0","0","POPULAR ESCRITORES","22780","ENSENADA, Ensenada, BAJA CALIFORNIA","","UNOENSENADA@HOTMAIL.COM","","Fijo","-116.59442848","31.79934957","","",""
"184","8320339","BE BOUTIQUE","","Comercio al por menor de ropa, excepto de bebé y lencería","0 a 5 personas","BOULEVARD","BENITO JUAREZ","500","","ENCANTO NORTE","21447","TECATE, Tecate, BAJA CALIFORNIA","","","","Fijo","-116.65101442","32.56420802","","",""
"185","6908715","BEAUTIQUE BEAUTY LAB","","Comercio al por menor de ropa, excepto de bebé y lencería","0 a 5 personas","CALLE","CUARTA","273","9","HIDALGO","22880","ENSENADA, Ensenada, BAJA CALIFORNIA","","","","Fijo","-116.58476281","31.85877724","CENTRO Y PLAZA COMERCIAL","HIDALGO","9"
"186","125275","BEAUTY COLLECTION","","Comercio al por menor de ropa de bebé","0 a 5 personas","BOULEVARD","FEDERICO BENITEZ LOPEZ","15168","37","RAMIREZ","22115","TIJUANA, Tijuana, BAJA CALIFORNIA","","","","Fijo","-116.95574970","32.49826616","","",""
"187","7368774","BEAUTY EN FASHION ROOM","","Comercio al por menor de ropa, excepto de bebé y lencería","0 a 5 personas","AVENIDA","VENECIA","2719","","VILLA FONTANA","22205","TIJUANA, Tijuana, BAJA CALIFORNIA","","","","Fijo","-116.86602709","32.50933022","","",""
"188","8551938","BEAUTY PAOLA","","Comercio al por menor de ropa, excepto de bebé y lencería","0 a 5 personas","CALLE","BENITO JUAREZ (SEGUNDA)","7731","114","ZONA CENTRO","22000","TIJUANA, Tijuana, BAJA CALIFORNIA","","BONITA-BEBE95@HOTMAIL.COM","","Fijo","-117.04321349","32.53481388","CENTRO Y PLAZA COMERCIAL","PLAZA MAYOREO DEL CELULAR","C114"
"189","60118","BEBE 165","","Comercio al por menor de ropa de bebé","0 a 5 personas","BOULEVARD","NUEVO LEON","700","","LOMA ALTA","21480","TECATE, Tecate, BAJA CALIFORNIA","6642228340","","","Fijo","-116.63496632","32.56671883","TIANGUIS, BAZAR O PULGA","SWAPMEET LOS ENCINOS","151 152"
"190","9083677","BEBE BOUTIQUE","","Comercio al por menor de ropa, excepto de bebé y lencería","0 a 5 personas","BOULEVARD","NINGUNO","","","JABONERA","21100","MEXICALI, Mexicali, BAJA CALIFORNIA","","","","Fijo","-115.48058883","32.65997350","CENTRO Y PLAZA COMERCIAL","LA CACHANILLA","7A"
"191","6908499","BEBES TRENDY","","Comercio al por menor de ropa de bebé","0 a 5 personas","AVENIDA","RUIZ","962","1","ZONA CENTRO","22800","ENSENADA, Ensenada, BAJA CALIFORNIA","6469475320","","","Fijo","-116.62328225","31.87241087","CENTRO Y PLAZA COMERCIAL","PLAZA RUIZ","1"
"192","7048347","BECKYS ARMARIO","","Comercio al por menor de ropa, excepto de bebé y lencería","0 a 5 personas","CALLE","ENSENADA","316","0","CENTRO","21850","SAN FELIPE, Mexicali, BAJA CALIFORNIA","6861458309","MARTINEZREBECCA103@HOTMAIL.COM","","Fijo","-114.84067931","31.02256093","","",""
"193","121784","BECON ONE LOOK","","Comercio al por menor de ropa de cuero y piel y de otros artículos de estos materiales","0 a 5 personas","AVENIDA","REVOLUCION","1317","","ZONA CENTRO","22000","TIJUANA, Tijuana, BAJA CALIFORNIA","","","","Fijo","-117.03642513","32.52978344","","",""
"194","105533","BELKOVA BAZAR","BELKOVA BAZAR ","Comercio al por menor de ropa, excepto de bebé y lencería","0 a 5 personas","BOULEVARD","REAL DE BAJA CALIFORNIA","23911","5","REAL DE SAN FRANCISCO","22236","TIJUANA, Tijuana, BAJA CALIFORNIA","6642117993","","","Fijo","-116.84963387","32.48647172","","",""
"195","6959268","BELLA BOUTIQUE","","Comercio al por menor de ropa, excepto de bebé y lencería","0 a 5 personas","CALLE","CARRILLO PUERTO (TERCERA)","7749","","ZONA CENTRO","22000","TIJUANA, Tijuana, BAJA CALIFORNIA","","","","Fijo","-117.04289685","32.53348587","","",""
"196","87230","BELLA S BOUTIQUE","","Comercio al por menor de ropa, excepto de bebé y lencería","0 a 5 personas","BOULEVARD","NINGUNO","","","JABONERA","21100","MEXICALI, Mexicali, BAJA CALIFORNIA","","","","Fijo","-115.48058883","32.65997350","CENTRO Y PLAZA COMERCIAL","LA CACHANILLA","9K"
"197","87226","BELLAS BOUTIQUE 2","","Comercio al por menor de ropa, excepto de bebé y lencería","0 a 5 personas","BOULEVARD","NINGUNO","","","JABONERA","21100","MEXICALI, Mexicali, BAJA CALIFORNIA","","","","Fijo","-115.48060088","32.65995482","CENTRO Y PLAZA COMERCIAL","PLAZA CACHANILLA SIN NUMERO","17M"
"198","8536194","BELLAS Y MODERNAS SA DE CV","","Comercio al por menor de ropa, excepto de bebé y lencería","0 a 5 personas","CARRETERA","LIBRE A TECATE","25420","0","EL REFUGIO","22244","EL REFUGIO, Tijuana, BAJA CALIFORNIA","","BELLASYMODERNAS@OUTLOOK.COM","","Fijo","-116.83571042","32.45441513","","",""
"199","6286016","BELLE FASHION S DE RL DE CV","","Confección en serie de otra ropa exterior de materiales textiles","51 a 100 personas","PRIVADA","SAN JOSÉ DE SAN MARTÍN","16690","23","NIÑOS HEROES ESTE","22120","TIJUANA, Tijuana, BAJA CALIFORNIA","","B.FASHION@GMAIL.COM","","Fijo","-116.94074058","32.48645118","OTRO CONGLOMERADO","LOS PINOS",""
"200","6960220","BELLY SHOP","","Comercio al por menor de ropa, excepto de bebé y lencería","0 a 5 personas","AVENIDA","LICENCIADO MARTIN CAREAGA","","2","LOS ALTOS","22534","TIJUANA, Tijuana, BAJA CALIFORNIA","","","","Fijo","-117.07460010","32.52609062","","",""
"201","83073","BELULA LEE BOUTIQUE","","Comercio al por menor de ropa, excepto de bebé y lencería","0 a 5 personas","CALZADA","FRANCISCO L. MONTEJANO","2090","","FRACC CALAFIA","21040","MEXICALI, Mexicali, BAJA CALIFORNIA","6861866648","BELULADISENO@GMAIL.COM","","Fijo","-115.45247357","32.63104795","","",""
"202","8312735","BELVA ITALIAN CLOSET","","Comercio al por menor de ropa, excepto de bebé y lencería","0 a 5 personas","BOULEVARD","CASA BLANCA","26135","11","FRACC VILLAS DEL SOL","22236","TIJUANA, Tijuana, BAJA CALIFORNIA","","","","Fijo","-116.85131155","32.49445758","CENTRO Y PLAZA COMERCIAL","PLAZA PASEO 2000","A   PA"
"203","9304532","BELVA VENTA DE ROPA DE DAMA","SIN NOMBRE ","Comercio al por mayor de ropa, bisutería y accesorios de vestir","0 a 5 personas","CALLE","BENITO JUAREZ (SEGUNDA)","7971","","CENTRO","22000","TIJUANA, Tijuana, BAJA CALIFORNIA","","","","Fijo","-117.04108954","32.53499918","CENTRO Y PLAZA COMERCIAL","PLAZA DE LA TECNOLOGIA",""
"204","60560","BERLIN COLECCION","","Comercio al por menor de ropa, excepto de bebé y lencería","0 a 5 personas","AVENIDA","BRASIL","8950","6","MADERO","22040","TIJUANA, Tijuana, BAJA CALIFORNIA","","BERLINCOLLECIONYVEROL@GMAIL.COM","","Fijo","-117.02784551","32.52180405","CENTRO Y PLAZA COMERCIAL","PLAZA BRASIL","6"
"205","8485869","BERRY NICE","","Comercio al por menor de ropa, excepto de bebé y lencería","0 a 5 personas","CARRETERA","LIBRE A TECATE","25420","","FIDEICOMISO EL FLORIDO","22245","EL REFUGIO, Tijuana, BAJA CALIFORNIA","","","","Fijo","-116.83703040","32.45387772","CENTRO Y PLAZA COMERCIAL","PLAZA SENDERO","L B 1- 2"
"206","6701437","BESTFACT S DE RL DE CV","BESTFACT S DE RL DE CV","Confección en serie de otra ropa exterior de materiales textiles","51 a 100 personas","CALLE","PRIMERA","145","0","EX EJIDO CHAPULTEPEC","22785","ENSENADA, Ensenada, BAJA CALIFORNIA","","BESTFACT2015@GMAIL.COM","","Fijo","-116.59619298","31.78477817","","",""
"207","8551883","BETTY NICE","","Comercio al por menor de ropa, excepto de bebé y lencería","6 a 10 personas","CALLE","BENITO JUAREZ (SEGUNDA)","7971","","ZONA CENTRO","22000","TIJUANA, Tijuana, BAJA CALIFORNIA","","","","Fijo","-117.04108954","32.53499918","CENTRO Y PLAZA COMERCIAL","PLAZA DE LA TECNOLOGIA","7971"
"208","87152","BETZY","","Comercio al por menor de ropa, excepto de bebé y lencería","0 a 5 personas","BOULEVARD","NINGUNO","","","JABONERA","21100","MEXICALI, Mexicali, BAJA CALIFORNIA","9468043","","","Fijo","-115.48058883","32.65997350","CENTRO Y PLAZA COMERCIAL","LA CACHANILLA","27B"
"209","8356616","BEULAH BOUTIQUE","","Comercio al por menor de ropa, excepto de bebé y lencería","0 a 5 personas","CALLE","NINGUNO","1900","","CENTRO COMERCIAL OTAY","22425","TIJUANA, Tijuana, BAJA CALIFORNIA","6647622573","VICTORIA.MARTINEZ_08@HOTMAIL.COM","","Fijo","-116.95245284","32.53222270","CENTRO Y PLAZA COMERCIAL","PLAZA COMERCIAL","24"
"210","8362029","BEULAH BOUTIQUE","","Comercio al por menor de ropa, excepto de bebé y lencería","0 a 5 personas","BOULEVARD","BOULEVARD EL REFUGIO","","","EL FLORIDO SEGUNDA SECCION","22237","TIJUANA, Tijuana, BAJA CALIFORNIA","","","","Fijo","-116.86488200","32.46568481","","",""
"211","6959370","BICORNIO MENTA","","Comercio al por menor de ropa, excepto de bebé y lencería","0 a 5 personas","AVENIDA","FRANCISCO I. MADERO","915","","ZONA CENTRO","22000","TIJUANA, Tijuana, BAJA CALIFORNIA","","","","Fijo","-117.03528149","32.53399474","","",""
"212","8346763","BIEL","","Comercio al por menor de ropa, excepto de bebé y lencería","0 a 5 personas","BOULEVARD","NINGUNO","","","JABONERA","21100","MEXICALI, Mexicali, BAJA CALIFORNIA","","","","Fijo","-115.48058883","32.65997350","CENTRO Y PLAZA COMERCIAL","LA CACHANILLA","47C"
"213","6958986","BIG CLUB","","Comercio al por menor de ropa, excepto de bebé y lencería","0 a 5 personas","AVENIDA","NIÑOS HEROES (B)","8018","","ZONA CENTRO","22000","TIJUANA, Tijuana, BAJA CALIFORNIA","","","","Fijo","-117.03980136","32.53280704","","",""
"214","8551646","BIG CLUB OUTLET STORE","BIG CLUB CENTRO ","Comercio al por menor de ropa, excepto de bebé y lencería","11 a 30 personas","CALLE","BENITO JUAREZ (SEGUNDA)","","","ZONA NORTE","22000","TIJUANA, Tijuana, BAJA CALIFORNIA","","","","Fijo","-117.04279347","32.53499897","","",""
"215","8402853","BIRUCIJANO","","Comercio al por menor de ropa, excepto de bebé y lencería","0 a 5 personas","CALZADA","TECNOLOGICO","14102","3","ALTABRISA","22420","TIJUANA, Tijuana, BAJA CALIFORNIA","","","","Fijo","-116.97366491","32.52983901","","",""
"216","119558","BIRUCIJASO","","Comercio al por menor de ropa, excepto de bebé y lencería","0 a 5 personas","AVENIDA","PASEO A PLAYAS DE TIJUANA","","","JARDINES","22500","TIJUANA, Tijuana, BAJA CALIFORNIA","","","","Fijo","-117.11993767","32.52328942","","",""
"217","74180","BIRUCIJAZO BOUTIQUE","","Comercio al por menor de ropa, excepto de bebé y lencería","0 a 5 personas","AVENIDA","PASEO DE LOS HEROES","9550","","ZONA URBANA RIO TIJUANA","22000","TIJUANA, Tijuana, BAJA CALIFORNIA","6642002784","PERSICO8@HOTMAIL.COM","","Fijo","-117.02106779","32.52737824","","",""
"218","94278","BIVALDI","","Comercio al por menor de ropa, excepto de bebé y lencería","0 a 5 personas","CALLE","NOVENA","444","6","CENTRO","22800","ENSENADA, Ensenada, BAJA CALIFORNIA","6462039044","VIVALE@HOTMAIL.COM","","Fijo","-116.62355117","31.87172666","","",""
"219","7622450","BIVALDI","","Comercio al por menor de ropa, excepto de bebé y lencería","0 a 5 personas","AVENIDA","RIVEROLL","1321","","ZONA CENTRO","22800","ENSENADA, Ensenada, BAJA CALIFORNIA","6462037047","","","Fijo","-116.61796943","31.87477845","CENTRO Y PLAZA COMERCIAL","PLAZA COMERCIAL RODRIGUEZ","1321"
"220","9134265","BLACK FASHION","","Comercio al por menor de ropa, excepto de bebé y lencería","0 a 5 personas","BOULEVARD","NINGUNO","","","JABONERA","21100","MEXICALI, Mexicali, BAJA CALIFORNIA","","","","Fijo","-115.48058883","32.65997350","CENTRO Y PLAZA COMERCIAL","LA CACHANILLA","9K"
"221","66318","BLACK KNIGHT","","Comercio al por menor de ropa, excepto de bebé y lencería","0 a 5 personas","CALZADA","CUAUHTEMOC (AVIACION)","215","1","CUAUHTEMOC SUR","21200","MEXICALI, Mexicali, BAJA CALIFORNIA","6865652121","BRODCO@HOTMAIL.COM","WWW.BLACKKNIGHTONLINE.COM.MX","Fijo","-115.44794169","32.65767125","","",""
"222","8551864","BLACK ORCHID","","Comercio al por menor de ropa, excepto de bebé y lencería","0 a 5 personas","AVENIDA","REVOLUCION","942","208","ZONA CENTRO","22000","TIJUANA, Tijuana, BAJA CALIFORNIA","6647603956","","","Fijo","-117.03665636","32.53359008","PASAJE Y ANDADOR COMERCIAL","PASAJE REVOLUCION","208"
"223","8317008","BLACK ORCHIT","","Comercio al por menor de ropa, excepto de bebé y lencería","0 a 5 personas","AVENIDA","PRESIDENTE MIGUEL ALEMAN VALDES","","","AMERICA","22044","TIJUANA, Tijuana, BAJA CALIFORNIA","","","","Fijo","-117.01981625","32.51940205","","",""
"224","8402698","BLACK STORE","","Comercio al por menor de ropa, excepto de bebé y lencería","0 a 5 personas","BOULEVARD","GUSTAVO DIAZ ORDAZ","15742","420","SIGLO XXI","22115","TIJUANA, Tijuana, BAJA CALIFORNIA","6644380062","","","Fijo","-116.94469866","32.48572943","","",""
"225","6977706","BLAKE Y WHITE","","Comercio al por menor de ropa, excepto de bebé y lencería","0 a 5 personas","AVENIDA","PASEO A PLAYAS DE TIJUANA","1429","","SECCION PLAYAS DE TIJUANA COSTA DE ORO","22506","TIJUANA, Tijuana, BAJA CALIFORNIA","","","","Fijo","-117.12006053","32.52281431","","",""
"226","7048380","BLONDI BOUTIQUE","","Comercio al por menor de ropa, excepto de bebé y lencería","0 a 5 personas","CALLE","ENSENADA","1086","","FRACC COLINAS DEL CUCHUMA","21449","TECATE, Tecate, BAJA CALIFORNIA","","","","Fijo","-116.65400603","32.57041234","","",""
"227","6915209","BLOOM","","Comercio al por menor de ropa, excepto de bebé y lencería","0 a 5 personas","CALZADA","MANUEL GOMEZ MORIN (RIO CAJEME)","901","16","RIVERA","21259","MEXICALI, Mexicali, BAJA CALIFORNIA","","","","Fijo","-115.41179874","32.65124927","CENTRO Y PLAZA COMERCIAL","LA GRAN VIA","16"
"228","8280634","BLOOM BOUTIQUE","BOUTIQUE DEL NORO ESTE S DE RL DE CV","Comercio al por menor de ropa, excepto de bebé y lencería","0 a 5 personas","CALLE","DE LAS TORRES","300","0","CALLE REFORMA PARCELA","22710","PLAYAS DE ROSARITO, Playas de Rosarito, BAJA CALIFORNIA","","","","Fijo","-117.05847797","32.37663428","","",""
"229","8346059","BLOOM BOUTIQUE","BOUTIQUES DEL NOROESTE S DE RL DE CV","Comercio al por menor de ropa, excepto de bebé y lencería","0 a 5 personas","BOULEVARD","NINGUNO","","","JABONERA","21100","MEXICALI, Mexicali, BAJA CALIFORNIA","","CACHANILLA1.MX@BLOOMBOUTIQUES.COM","","Fijo","-115.48060088","32.65995482","CENTRO Y PLAZA COMERCIAL","PLAZA CACHANILLA SIN NUMERO","SN"
"230","8280635","BLOOM BOUTIQUE 2","BOUTIQUE DEL NOROESTE S DE RL DE CV","Comercio al por menor de ropa, excepto de bebé y lencería","0 a 5 personas","CALLE","NINGUNO","300","0","CALLE REFORMA PARCELA","22710","PLAYAS DE ROSARITO, Playas de Rosarito, BAJA CALIFORNIA","","","","Fijo","-117.05847797","32.37663428","","",""
"231","6424179","BLOOMING BOUTIQUE","BLOOMING BOUTIQUE ","Comercio al por menor de ropa, excepto de bebé y lencería","0 a 5 personas","BOULEVARD","LAZARO CARDENAS","2955","75","PLUTARCO ELIAS CALLES","21399","MEXICALI, Mexicali, BAJA CALIFORNIA","6862258894","","","Fijo","-115.38661295","32.61065462","CENTRO Y PLAZA COMERCIAL","PLAZA NUEVO MEXICALI","75"
"232","9171847","BLOSSOM BOUTIQUE","","Comercio al por menor de ropa, excepto de bebé y lencería","0 a 5 personas","AVENIDA","PLATEROS","2057","","BUROCRATAS","21020","MEXICALI, Mexicali, BAJA CALIFORNIA","","","","Fijo","-115.45318144","32.65721857","","",""
"233","140200","BLUE BOUTIQUE","","Comercio al por menor de ropa, excepto de bebé y lencería","0 a 5 personas","BOULEVARD","LAZARO CARDENAS","2955","7","PLUTARCO ELIAS CALLES","21399","MEXICALI, Mexicali, BAJA CALIFORNIA","6865613806","","","Fijo","-115.38661295","32.61065462","CENTRO Y PLAZA COMERCIAL","PLAZA NUEVO MEXICALI","7 C"
"234","6811436","BLUE HEAVEN","","Fabricación de ropa exterior de tejido de punto","11 a 30 personas","CALLE","PASEO ÁGUILA AZTECA","19308","1","BAJA MAQ EL AGUILA","22215","TIJUANA, Tijuana, BAJA CALIFORNIA","","MBMARISCALG@HOTMAIL.COM","","Fijo","-116.90421966","32.49496538","OTRO CONGLOMERADO","BAJA MAQ EL AGUILA","1"
"235","87153","BLUE JEANS MEN S WEAR","","Comercio al por menor de ropa, excepto de bebé y lencería","0 a 5 personas","BOULEVARD","SIN REFERENCIA","","7","JABONERA","21100","MEXICALI, Mexicali, BAJA CALIFORNIA","","","","Fijo","-115.48058883","32.65997350","CENTRO Y PLAZA COMERCIAL","LA CACHANILLA","B"
"236","6908590","BLUE SHELL","","Comercio al por menor de ropa, excepto de bebé y lencería","0 a 5 personas","AVENIDA","ADOLFO LOPEZ MATEOS","1090","7","ZONA CENTRO","22800","ENSENADA, Ensenada, BAJA CALIFORNIA","9771282","","","Fijo","-116.62181140","31.86066640","","",""
"237","8370316","BLUEBERRY BOUTIQUE","","Comercio al por menor de ropa, excepto de bebé y lencería","0 a 5 personas","CALZADA","LUIS ECHEVERRIA Y/O MACRISTY DE HERMOSILLO","","","REPUBLICA MEXICANA","21250","MEXICALI, Mexicali, BAJA CALIFORNIA","6862670448","","","Fijo","-115.41763228","32.64996596","","",""
"238","117498","BM BOUTIQUE","","Comercio al por menor de ropa, excepto de bebé y lencería","0 a 5 personas","AVENIDA","INGENIERO JUAN OJEDA ROBLES Y/O DE LA PAZ","","","BUENAVISTA","22370","TIJUANA, Tijuana, BAJA CALIFORNIA","","DIANA13LI@ICLUD.COM","","Fijo","-116.98982405","32.51985612","","",""
"239","8565493","BMI FASHION","","Comercio al por menor de ropa, excepto de bebé y lencería","0 a 5 personas","CALLE","RIO NAZAS","2606","1","REVOLUCION","22000","TIJUANA, Tijuana, BAJA CALIFORNIA","","","","Fijo","-117.01770822","32.51932144","","",""
"240","101492","BOBO PRODUCCION","BOBO PRODUCCION SA DE CV","Confección en serie de otra ropa exterior de materiales textiles","51 a 100 personas","CARRETERA","TRANSPENINSULAR (REFORMA)","953","","VALLE DORADO","22890","ENSENADA, Ensenada, BAJA CALIFORNIA","","BOBOPRODUCCIONSADECV@HOTMAIL.COM","","Fijo","-116.60027863","31.82910341","","",""
"241","6346020","BOBOIS","BBS MEXICO SA DE CV","Comercio al por menor de ropa, excepto de bebé y lencería","11 a 30 personas","AVENIDA","PASEO DE LOS HEROES","1011","8","ZONA RIO","22010","TIJUANA, Tijuana, BAJA CALIFORNIA","","","","Fijo","-117.01719635","32.52512824","CENTRO Y PLAZA COMERCIAL","CENTRO Y PLAZA COMERCIAL SIN NOMBRE","8A1"
"242","7633875","BOBOIS MEN","BBS MEXICO S.A. DE C.V. ","Comercio al por menor de ropa, excepto de bebé y lencería","11 a 30 personas","AVENIDA","PASEO DE LOS HEROES","3","","ZONA URBANA RIO TIJUANA","22000","TIJUANA, Tijuana, BAJA CALIFORNIA","","","","Fijo","-117.02083497","32.52721462","CENTRO Y PLAZA COMERCIAL","PLAZA RIOS","3"
"243","9315190","BOBOIS WOMAN","BBS MEXICO SA DE CV ","Comercio al por menor de ropa, excepto de bebé y lencería","0 a 5 personas","AVENIDA","PASEO DE LOS HEROES","3","","PLAZA RIO","22000","TIJUANA, Tijuana, BAJA CALIFORNIA","","","","Fijo","-117.02083497","32.52721462","CENTRO Y PLAZA COMERCIAL","PLAZA RIOS",""
"244","6801815","BOCA ROSA","WAFURGA SA DE CV","Comercio al por menor de ropa, excepto de bebé y lencería","11 a 30 personas","CARRETERA","LIBRE TIJUANA TECATE","25420","0","FIDEICOMISO EL FLORIDO","22245","TIJUANA, Tijuana, BAJA CALIFORNIA","","CONTABILIDAD@BOAROSA.COM.MX","","Fijo","-116.85904428","32.47540533","CENTRO Y PLAZA COMERCIAL","SENDERO","D79"
"245","86765","BODEGA","","Comercio al por menor de ropa, excepto de bebé y lencería","0 a 5 personas","AVENIDA","CAMELIAS","","16","FRACC VILLA DORADA","21150","MEXICALI, Mexicali, BAJA CALIFORNIA","","","","Fijo","-115.47493930","32.65142795","TIANGUIS, BAZAR O PULGA","TIANGUIS EL CABALLITO","S16"
"246","8797371","BODEGA","","Comercio al por menor de ropa, excepto de bebé y lencería","0 a 5 personas","AVENIDA","CAMELIAS","","","FRACC VILLA DORADA","21150","MEXICALI, Mexicali, BAJA CALIFORNIA","","","","Fijo","-115.47493930","32.65142795","TIANGUIS, BAZAR O PULGA","TIANGUIS EL CABALLITO","SN"
"247","118580","BODEGA  ADMINISTRADORA DE LAS TIENDAS EL  AGUILA","ESTABLECIMIENTOS DEL RIO, S.A. DE C.V. ","Comercio al por menor de ropa, excepto de bebé y lencería","31 a 50 personas","CALLE","FRANCISCO GOITIA","10303","","ZONA URBANA RIO","22010","TIJUANA, Tijuana, BAJA CALIFORNIA","6646343040","","","Fijo","-117.01564818","32.52587211","","",""
"248","95824","BODEGA DE MAQUILADORA B FREE S DE RL DE CV","B FREE, S. DE R.L. DE C.V. ","Confección en serie de otra ropa exterior de materiales textiles","0 a 5 personas","AVENIDA","ESTADO 29","","","HIDALGO","22880","ENSENADA, Ensenada, BAJA CALIFORNIA","","","","Fijo","-116.59036142","31.86193594","","",""
"249","86858","BODEGA DE ROPA","","Comercio al por menor de ropa, excepto de bebé y lencería","0 a 5 personas","AVENIDA","CAMELIAS","","57","CENTRO CIVICO","21150","MEXICALI, Mexicali, BAJA CALIFORNIA","","","","Fijo","-115.47493930","32.65142795","TIANGUIS, BAZAR O PULGA","TIANGUIS EL CABALLITO","S57"
"250","7622057","BODEGA FOREVER","","Comercio al por menor de ropa, excepto de bebé y lencería","0 a 5 personas","AVENIDA","PASEO DE LOS HEROES","10001","","ZONA RIO","22010","TIJUANA, Tijuana, BAJA CALIFORNIA","","","","Fijo","-117.02218253","32.52767330","CENTRO Y PLAZA COMERCIAL","PLAZA DEL ZAPATO","10001"
"251","8552600","BODEGA GONSONS UNIFORMES Y DEPORTES","","Comercio al por mayor de ropa, bisutería y accesorios de vestir","0 a 5 personas","CALLE","ARTICULO 27 CONSTITUCIONAL","2088","","PARCELA 39","22707","PLAYAS DE ROSARITO, Playas de Rosarito, BAJA CALIFORNIA","","","","Fijo","-117.05358018","32.36600540","CENTRO Y PLAZA COMERCIAL","PLAZA ALE","2088"
"252","6286236","BODEGA LA FAVORITA","TIENDA LA FAVORITA DE TIJUANA SA","Comercio al por menor de ropa, excepto de bebé y lencería","11 a 30 personas","CALLE","BRAULIO MALDONADO","470","0","SOLER","22105","TIJUANA, Tijuana, BAJA CALIFORNIA","","TIENDALAFAVORITA@HOTMAIL.COM","","Fijo","-117.07293197","32.53221442","","",""
"253","8345836","BODEGA SALDOS NAILEA","","Comercio al por menor de ropa, excepto de bebé y lencería","0 a 5 personas","CALLE","DELANTE (EL ROSARIO)","","","CUAHUTEMOC","22890","ENSENADA, Ensenada, BAJA CALIFORNIA","","","","Fijo","-116.59154607","31.85286845","","",""
"254","6959248","BODEGA SIN NOMBRE","","Comercio al por menor de ropa, excepto de bebé y lencería","0 a 5 personas","CALLE","PANFILO NATERA","6325","","FRANCISCO VILLA","22150","TIJUANA, Tijuana, BAJA CALIFORNIA","","","","Fijo","-117.05482135","32.50930128","","",""
"255","8903872","BOHO GIRL BOUTQUE","","Comercio al por menor de ropa, excepto de bebé y lencería","0 a 5 personas","CALLE","SIN REFERENCIA","","8701","ALFA PANAMERICANO","22647","TIJUANA, Tijuana, BAJA CALIFORNIA","","","","Fijo","-117.00523341","32.46944593","CENTRO Y PLAZA COMERCIAL","PLAZA CRISTOF","14"
"256","6973248","BOLITAS MODA INFANTIL","","Comercio al por menor de ropa de bebé","0 a 5 personas","BOULEVARD","ANILLO PERIFERICO","1600","0","PLAZA SENDERO","21395","MEXICALI, Mexicali, BAJA CALIFORNIA","","","","Fijo","-115.35629524","32.59417090","CENTRO Y PLAZA COMERCIAL","PLAZA SENDERO","B7"
"257","8551823","BOLSA ACCESORIOS Y NOVEDADES","","Comercio al por menor de ropa de cuero y piel y de otros artículos de estos materiales","0 a 5 personas","CALLE","BENITO JUAREZ (SEGUNDA)","7971","299","ZONA CENTRO","22000","TIJUANA, Tijuana, BAJA CALIFORNIA","","","","Fijo","-117.04108954","32.53499918","CENTRO Y PLAZA COMERCIAL","PLAZA DE LA TECNOLOGIA","299 Y 301"
"258","155642","BOLSAS DE DAMA","","Comercio al por menor de ropa de cuero y piel y de otros artículos de estos materiales","0 a 5 personas","BOULEVARD","GUSTAVO DIAZ ORDAZ","14450","384","LA MESA","22140","TIJUANA, Tijuana, BAJA CALIFORNIA","","","","Fijo","-116.96826750","32.50012111","","",""
"259","147240","BOLSAS DE PIEL","","Comercio al por menor de ropa de cuero y piel y de otros artículos de estos materiales","0 a 5 personas","AVENIDA","5 DE MAYO (A)","","119","VICENTE GUERRERO","21970","VICENTE GUERRERO (ALGODONES), Mexicali, BAJA CALIFORNIA","","","","Fijo","-114.72885819","32.71706214","","",""
"260","126200","BOLSAS Y CINTOS DE PIEL Y ACCESORIOS","","Comercio al por menor de ropa de cuero y piel y de otros artículos de estos materiales","0 a 5 personas","BOULEVARD","GUSTAVO DIAZ ORDAZ","15742","287","LA JOYA ESTE","22115","TIJUANA, Tijuana, BAJA CALIFORNIA","","","","Fijo","-116.94469866","32.48572943","TIANGUIS, BAZAR O PULGA","SWAP MEET SIGLO XXI","287"
"261","94173","BOLSAS Y MOCHILA","RICARDO BAUTISTA SANTIAGO ","Comercio al por menor de ropa de cuero y piel y de otros artículos de estos materiales","0 a 5 personas","AVENIDA","BENITO JUAREZ (QUINTA)","468","","ZONA CENTRO","22800","ENSENADA, Ensenada, BAJA CALIFORNIA","","","","Fijo","-116.62509181","31.86737376","","",""
"262","7345625","BOLSOS Y ACCESORIOS","","Comercio al por menor de ropa de cuero y piel y de otros artículos de estos materiales","0 a 5 personas","AVENIDA","RAMON ALANID","15168","","FRACC BUSTAMANTE","22115","TIJUANA, Tijuana, BAJA CALIFORNIA","","","","Fijo","-116.95909137","32.49880034","TIANGUIS, BAZAR O PULGA","SWAP MEET LAS CARPAS","K-16"
"263","70241","BOMAR","COMERCIALIZADORA DE MODA SA DE CV","Comercio al por menor de ropa, excepto de bebé y lencería","11 a 30 personas","AVENIDA","RIVEROLL","758","","ZONA CENTRO","22800","ENSENADA, Ensenada, BAJA CALIFORNIA","6461782679","MICHELLEDEENSENADA@YAHOO.COM.MX","","Fijo","-116.62244549","31.86587460","","",""
"264","100183","BOMAR","","Comercio al por menor de ropa, excepto de bebé y lencería","0 a 5 personas","BOULEVARD","EMILIANO ZAPATA","522","","ESCRITORES","22785","ENSENADA, Ensenada, BAJA CALIFORNIA","6462054023","","","Fijo","-116.59218893","31.79683763","","",""
"265","8304537","BOMBON","","Comercio al por menor de ropa, excepto de bebé y lencería","0 a 5 personas","AVENIDA","BENITO JUAREZ (QUINTA)","","","ZONA CENTRO","22800","ENSENADA, Ensenada, BAJA CALIFORNIA","","","","Fijo","-116.62040157","31.86581048","","",""
"266","100437","BOMBON BOUTIQUE","","Comercio al por menor de ropa, excepto de bebé y lencería","0 a 5 personas","CARRETERA","TRANSPENINSULAR (REFORMA)","3976","30","LOMAS DEL MAR","22890","ENSENADA, Ensenada, BAJA CALIFORNIA","","","","Fijo","-116.59882968","31.82083387","CENTRO Y PLAZA COMERCIAL","MACRO PLAZA DEL MAR","B"
"267","8301398","BOMBON BOUTIQUE","","Comercio al por menor de ropa, excepto de bebé y lencería","0 a 5 personas","AVENIDA","RUIZ","","","CENTRO","22800","ENSENADA, Ensenada, BAJA CALIFORNIA","","","","Fijo","-116.62488255","31.86956271","","",""
"268","120867","BONCO BLUE","","Comercio al por menor de ropa, excepto de bebé y lencería","0 a 5 personas","AVENIDA","TLALTIZAPAN","2481","8","MORELOS","22056","TIJUANA, Tijuana, BAJA CALIFORNIA","","","","Fijo","-117.03827620","32.52058608","","",""
"269","6948418","BONETERIA COCOLANDYA","","Comercio al por menor de ropa de bebé","0 a 5 personas","CALLE","DIEGO ESQUIVEL","232","0","LUCIO BLANCO","22706","PLAYAS DE ROSARITO, Playas de Rosarito, BAJA CALIFORNIA","","","","Fijo","-117.05658352","32.38403190","","",""
"270","7048811","BONETERIA OSITAS","","Comercio al por menor de ropa de bebé","0 a 5 personas","CALLE","TEZOZOMOC","460","0","CUAHUTEMOC","21470","TECATE, Tecate, BAJA CALIFORNIA","6658511739","","","Fijo","-116.61511280","32.57084434","","",""
"271","8301544","BONHOMIA","","Comercio al por menor de ropa de cuero y piel y de otros artículos de estos materiales","0 a 5 personas","BOULEVARD","EMILIANO ZAPATA","513","2","VILLAS DEL REAL 1RA SECC","22785","ENSENADA, Ensenada, BAJA CALIFORNIA","6461412188","","","Fijo","-116.58819972","31.79733115","","",""
"272","8850718","BONITA BEATY","","Comercio al por menor de ropa, excepto de bebé y lencería","0 a 5 personas","CALLE","CANAL","","","SANTA LUSIA","22209","TIJUANA, Tijuana, BAJA CALIFORNIA","","","","Fijo","-116.95650207","32.50425239","","",""
"273","8304857","BONITAS BOUTIQUE","","Comercio al por menor de ropa, excepto de bebé y lencería","0 a 5 personas","CALLE","DIEGO ESQUIVEL","232","0","LUCIO BLANCO","22706","PLAYAS DE ROSARITO, Playas de Rosarito, BAJA CALIFORNIA","","","","Fijo","-117.05629170","32.38402605","","",""
"274","8728097","BONJOUR","","Comercio al por menor de ropa, excepto de bebé y lencería","0 a 5 personas","CALZADA","MANUEL GOMEZ MORIN (RIO CAJEME)","901","27","RIVERA","21259","MEXICALI, Mexicali, BAJA CALIFORNIA","","","","Fijo","-115.41179874","32.65124927","CENTRO Y PLAZA COMERCIAL","LA GRAN VIA","26"
"275","72436","BOOLSAS KENNY","CASA DE EMPEÑO MAZATLÁN ","Comercio al por menor de ropa de cuero y piel y de otros artículos de estos materiales","0 a 5 personas","AVENIDA","BENITO JUAREZ (QUINTA)","1329","","ZONA CENTRO","22830","ENSENADA, Ensenada, BAJA CALIFORNIA","2449733","","","Fijo","-116.61510728","31.86376126","","",""
"276","92134","BORDADOS Y UNIFORMES","","Comercio al por menor de ropa, excepto de bebé y lencería","0 a 5 personas","BOULEVARD","ANAHUAC","","","JARDINES DE LAGO","21339","MEXICALI, Mexicali, BAJA CALIFORNIA","6865580119","","","Fijo","-115.47926091","32.62094943","","",""
"277","6705977","BORDER ASSEMBLY S DE RL DE CV","BORDER ASSEMBLY S DE RL DE CV","Confección en serie de otra ropa exterior de materiales textiles","51 a 100 personas","CALLE","PASEO ÁGUILA AZTECA","19308","7","EL ÁGUILA","22215","TIJUANA, Tijuana, BAJA CALIFORNIA","","NOEMI.GARCIA@TECMA.COM","","Fijo","-116.90323991","32.49499517","","",""
"278","8319565","BORSETTA BOUTIQUE","","Comercio al por menor de ropa, excepto de bebé y lencería","0 a 5 personas","AVENIDA","LOS PINOS","13","10","LOS PINOS","21230","MEXICALI, Mexicali, BAJA CALIFORNIA","","","","Fijo","-115.45230404","32.65326168","PASAJE Y ANDADOR COMERCIAL","PLAZA DEL NORTE","10"
"279","8849540","BOTIQUE","","Comercio al por menor de ropa, excepto de bebé y lencería","0 a 5 personas","BOULEVARD","GUSTAVO DIAZ ORDAZ","1665","0","ANAHUAC","21060","TIJUANA, Tijuana, BAJA CALIFORNIA","","","","Fijo","-116.97859229","32.50616291","MERCADO PUBLICO","MERCADO DE TODOS","L 16"
"280","155017","BOTIQUE CARLITOS","","Comercio al por menor de ropa de bebé","0 a 5 personas","BOULEVARD","GUSTAVO DIAZ ORDAZ","1665","","ANAHUAC","21060","TIJUANA, Tijuana, BAJA CALIFORNIA","","","","Fijo","-116.97859229","32.50616291","MERCADO PUBLICO","MERCADO DE TODOS","50"
"281","8196524","BOTIQUE CHANTEL","","Comercio al por menor de ropa, excepto de bebé y lencería","0 a 5 personas","BOULEVARD","GUSTAVO DIAZ ORDAZ","1665","0","ANAHUAC","21060","TIJUANA, Tijuana, BAJA CALIFORNIA","","","","Fijo","-116.97859229","32.50616291","MERCADO PUBLICO","MERCADO DE TODOS","L 5"
"282","8319750","BOTIQUE IDARA","","Comercio al por menor de ropa, excepto de bebé y lencería","0 a 5 personas","AVENIDA","IGNACIO LOPEZ RAYON","823","4","INDEPENDENCIA","21290","MEXICALI, Mexicali, BAJA CALIFORNIA","","","","Fijo","-115.43390364","32.63471987","","",""
"283","8333378","BOTIQUE JIZELLE","","Comercio al por menor de ropa, excepto de bebé y lencería","0 a 5 personas","CALLE","TIJUANA","","","EL TECOLOTE SECC II","22675","TIJUANA, Tijuana, BAJA CALIFORNIA","6643646225","","","Fijo","-116.98709245","32.44635897","","",""
"284","8093729","BOUTICK PARA CABALLERO PEDRO HAA","","Comercio al por menor de ropa, excepto de bebé y lencería","0 a 5 personas","AVENIDA","PASEO DE LOS HEROES","10001","","ZONA RIO","22010","TIJUANA, Tijuana, BAJA CALIFORNIA","","","","Fijo","-117.02218253","32.52767330","CENTRO Y PLAZA COMERCIAL","PLAZA DEL ZAPATO","10001"
"285","74701","BOUTICKE DIVAS DIVINAS","","Comercio al por menor de ropa, excepto de bebé y lencería","0 a 5 personas","CALLE","VIA RAPIDA","19","","ZONA URBANA RIO TIJUANA","22000","TIJUANA, Tijuana, BAJA CALIFORNIA","6646341144","","DIVASDIVINAS.MX","Fijo","-117.01914520","32.52904633","","",""
"286","7368995","BOUTIQ","","Comercio al por menor de ropa, excepto de bebé y lencería","0 a 5 personas","BOULEVARD","PASEO DEL BOSQUE","25227","11","RESIDENCIAL DEL BOSQUE","22204","TIJUANA, Tijuana, BAJA CALIFORNIA","","","","Fijo","-116.83820570","32.50880593","","",""
"287","9191454","BOUTIQ ROBERTA VILUC","","Comercio al por menor de ropa, excepto de bebé y lencería","0 a 5 personas","BOULEVARD","EMILIANO ZAPATA","","","ESCRITORES","22785","ENSENADA, Ensenada, BAJA CALIFORNIA","","","","Fijo","-116.59182799","31.79689023","","",""
"288","8379533","BOUTIQUE","","Comercio al por menor de ropa, excepto de bebé y lencería","0 a 5 personas","CALLE","BENITO JUAREZ (SEGUNDA)","7971","538","ZONA CENTRO","22000","TIJUANA, Tijuana, BAJA CALIFORNIA","","TOGUHE7@GMAIL.COM","","Fijo","-117.04108954","32.53499918","CENTRO Y PLAZA COMERCIAL","PLAZA DE LA TECNOLOGIA","538"
"289","63636","BOUTIQUE","","Comercio al por menor de ropa, excepto de bebé y lencería","0 a 5 personas","AVENIDA","GASTELUM","220","","ZONA CENTRO","22800","ENSENADA, Ensenada, BAJA CALIFORNIA","6462049311","","","Fijo","-116.62668290","31.86508395","CENTRO Y PLAZA COMERCIAL","PLAZA LOS ARCOS","220"
"290","8593233","BOUTIQUE","","Comercio al por menor de ropa, excepto de bebé y lencería","0 a 5 personas","CALLEJON","CASABLANCAS","","","GUANAJUATO","22117","TIJUANA, Tijuana, BAJA CALIFORNIA","6643070706","","","Fijo","-116.95989332","32.48888416","","",""
"291","114969","BOUTIQUE","","Comercio al por menor de ropa, excepto de bebé y lencería","0 a 5 personas","AVENIDA","CONSTITUCION","929","3","ZONA CENTRO","22000","TIJUANA, Tijuana, BAJA CALIFORNIA","","","","Fijo","-117.03847963","32.53356248","CENTRO Y PLAZA COMERCIAL","PLAZA CONSTITUCION","3"
"292","8317163","BOUTIQUE","","Comercio al por menor de ropa, excepto de bebé y lencería","0 a 5 personas","CALLE","NINGUNO","0","33","PORTICOS DE SANTA FE","22666","TIJUANA, Tijuana, BAJA CALIFORNIA","","","","Fijo","-117.03760540","32.44213383","","",""
"293","7344764","BOUTIQUE","","Comercio al por menor de ropa, excepto de bebé y lencería","0 a 5 personas","CALLE","E","","","GRANJAS FAMILIARES DIVISION DEL NORTE","22474","TIJUANA, Tijuana, BAJA CALIFORNIA","6645900061","","","Fijo","-116.87624582","32.54759893","","",""
"294","8313206","BOUTIQUE","","Comercio al por menor de ropa, excepto de bebé y lencería","0 a 5 personas","CALLE","PASEO DE LAS LOMAS","283","","TERRAZAS DEL VALLE SEGUNDA SECCION","22330","TERRAZAS DEL VALLE, Tijuana, BAJA CALIFORNIA","6442601847","","","Fijo","-116.83724428","32.48930713","EDIFICIO COMERCIAL Y DE SERVICIOS","SIN NOMBRE","283"
"295","7633942","BOUTIQUE","BOUTIQUE ","Comercio al por menor de ropa, excepto de bebé y lencería","0 a 5 personas","CALLE","ADOLFO LOPEZ MATEOS","","","PLAN LIBERTADOR","22706","PLAYAS DE ROSARITO, Playas de Rosarito, BAJA CALIFORNIA","6611193194","","","Fijo","-117.04111016","32.41149342","","",""
"296","6948211","BOUTIQUE","","Comercio al por menor de ropa, excepto de bebé y lencería","0 a 5 personas","BOULEVARD","EMILIANO ZAPATA","10206","","AMPL PLAN LIBERTADOR","22706","PLAYAS DE ROSARITO, Playas de Rosarito, BAJA CALIFORNIA","6611106434","","","Fijo","-117.03379814","32.41113142","","",""
"297","8849493","BOUTIQUE","","Comercio al por menor de ropa, excepto de bebé y lencería","0 a 5 personas","CALLE","CHIHUAHUA","197","","AMPL CONSTITUCION","22707","PLAYAS DE ROSARITO, Playas de Rosarito, BAJA CALIFORNIA","6611024206","","","Fijo","-117.05220852","32.36556908","","",""
"298","104842","BOUTIQUE  EL LOCALITO","","Comercio al por menor de ropa, excepto de bebé y lencería","0 a 5 personas","CALLE","HACIENDA SAN RAFAEL","28","","TERRAZAS DEL VALLE SEGUNDA SECCION","22246","TERRAZAS DEL VALLE, Tijuana, BAJA CALIFORNIA","6641189970","","","Fijo","-116.82341789","32.49226305","","",""
"299","119747","BOUTIQUE 110","","Comercio al por menor de ropa, excepto de bebé y lencería","0 a 5 personas","AVENIDA","PASEO DEL PEDREGAL","530","","PLAYAS DE TIJUANA","22504","TIJUANA, Tijuana, BAJA CALIFORNIA","","","","Fijo","-117.11427696","32.52998265","","",""
"300","110452","BOUTIQUE 2 HERMANOS","","Comercio al por menor de ropa, excepto de bebé y lencería","0 a 5 personas","CALLE","PASEO DEL ROBLE","25326","","ALTIPLANO","22204","TIJUANA, Tijuana, BAJA CALIFORNIA","","","","Fijo","-116.83499148","32.51244884","","",""
"301","8317113","BOUTIQUE 3 M DESINGS","","Comercio al por menor de ropa, excepto de bebé y lencería","0 a 5 personas","BOULEVARD","BENITO JUAREZ","39","","ZONA CENTRO","22707","PLAYAS DE ROSARITO, Playas de Rosarito, BAJA CALIFORNIA","","","","Fijo","-117.05675420","32.34087516","","",""
"302","81717","BOUTIQUE 50 50","","Comercio al por menor de ropa, excepto de bebé y lencería","0 a 5 personas","CALZADA","LICENCIADO VICENTE LOMBARDO TOLEDANO","","","GOMEZ FARIAS","21350","MEXICALI, Mexicali, BAJA CALIFORNIA","6862523649","","","Fijo","-115.47254738","32.61034345","","",""
"303","106184","BOUTIQUE 54","","Comercio al por menor de ropa, excepto de bebé y lencería","0 a 5 personas","AVENIDA","LAS FUENTES","25420","54","EL FLORIDO SEGUNDA SECCION","22237","TIJUANA, Tijuana, BAJA CALIFORNIA","","","","Fijo","-116.86311930","32.46503146","","",""
"304","8894491","BOUTIQUE 811","","Comercio al por menor de ropa, excepto de bebé y lencería","0 a 5 personas","CALLE","CARRILLO PUERTO (TERCERA)","7981","3","ZONA CENTRO","22000","TIJUANA, Tijuana, BAJA CALIFORNIA","","","","Fijo","-117.04096878","32.53366142","","",""
"305","111958","BOUTIQUE A LA MODA","YANETH CORREA ABARCA ","Comercio al por menor de ropa, excepto de bebé y lencería","0 a 5 personas","CALLE","MAZATLAN","","","LAS TORRES","22470","TIJUANA, Tijuana, BAJA CALIFORNIA","","","","Fijo","-116.89112890","32.54818194","","",""
"306","7049007","BOUTIQUE ABI","","Comercio al por menor de ropa, excepto de bebé y lencería","0 a 5 personas","CALLE","PASEO DE LAS LOMAS","8434","","TERRAZAS DEL VALLE SEGUNDA SECCION","22330","TERRAZAS DEL VALLE, Tijuana, BAJA CALIFORNIA","6648015460","","","Fijo","-116.82599970","32.48767223","","",""
"307","9199183","BOUTIQUE ABY S","","Comercio al por menor de ropa, excepto de bebé y lencería","0 a 5 personas","AVENIDA","AVENIDA DE LOS JAZMINES","397","","AVENIDA REPUBLICA DE ECUADOR","21216","MEXICALI, Mexicali, BAJA CALIFORNIA","","","","Fijo","-115.41980710","32.66409667","","",""
"308","6973033","BOUTIQUE ADRIANA","","Comercio al por menor de ropa, excepto de bebé y lencería","0 a 5 personas","CARRETERA","ESTATAL NUMERO 4","","","VENUSTIANO CARRANZA","21739","COLONIA VENUSTIANO CARRANZA (LA CARRANZA), Mexicali, BAJA CALIFORNIA","6861472893","","","Fijo","-115.16103673","32.23961663","","",""
"309","8312714","BOUTIQUE AGUILAR","","Comercio al por menor de ropa, excepto de bebé y lencería","0 a 5 personas","CARRETERA","LIBRE A TECATE","25420","","FIDEICOMISO EL FLORIDO","22245","EL REFUGIO, Tijuana, BAJA CALIFORNIA","","","","Fijo","-116.83703040","32.45387772","CENTRO Y PLAZA COMERCIAL","PLAZA SENDERO","L E 2"
"310","8313782","BOUTIQUE ALBAS PLACE","","Comercio al por menor de ropa, excepto de bebé y lencería","0 a 5 personas","BOULEVARD","ALBERTO LIMON PADILLA","11","","OTAY GALERIAS","22436","TIJUANA, Tijuana, BAJA CALIFORNIA","","","","Fijo","-116.93253910","32.53548683","","",""
"311","8940604","BOUTIQUE AMAYRANI","","Comercio al por menor de ropa, excepto de bebé y lencería","0 a 5 personas","CALLE","PASEO DEL GUAYCURA","21203","","AMPL GUAYCURA","22214","TIJUANA, Tijuana, BAJA CALIFORNIA","","","","Fijo","-116.91965079","32.50917604","","",""
"312","8312875","BOUTIQUE AMAYRANI","","Comercio al por menor de ropa, excepto de bebé y lencería","0 a 5 personas","BOULEVARD","BOULEVARD EL REFUGIO","21320","","FLORIDO I","22244","TIJUANA, Tijuana, BAJA CALIFORNIA","6642683899","","","Fijo","-116.87985198","32.46155201","","",""
"313","8312817","BOUTIQUE ANABELA","","Comercio al por menor de ropa, excepto de bebé y lencería","0 a 5 personas","BOULEVARD","BOULEVARD EL REFUGIO","21320","","FLORIDO I","22244","TIJUANA, Tijuana, BAJA CALIFORNIA","","","","Fijo","-116.88025038","32.46150897","","",""
"314","7078634","BOUTIQUE ANAEL","","Comercio al por menor de ropa, excepto de bebé y lencería","0 a 5 personas","AVENIDA","MEXICO","","","AVIACION","22840","ENSENADA, Ensenada, BAJA CALIFORNIA","","","","Fijo","-116.59446048","31.86479468","","",""
"315","7078749","BOUTIQUE ANDREA","","Comercio al por menor de ropa, excepto de bebé y lencería","0 a 5 personas","CALLE","CORAL","1065","","MAESTROS","22840","ENSENADA, Ensenada, BAJA CALIFORNIA","","","","Fijo","-116.58664056","31.86772328","","",""
"316","132969","BOUTIQUE ANGELES","","Comercio al por menor de ropa, excepto de bebé y lencería","0 a 5 personas","CALLE","BRAULIO MALDONADO","829","","SOLER","22530","TIJUANA, Tijuana, BAJA CALIFORNIA","6649041070","","","Fijo","-117.07291602","32.53206608","","",""
"317","8312986","BOUTIQUE ANGELLA","","Comercio al por menor de ropa, excepto de bebé y lencería","0 a 5 personas","BOULEVARD","BOULEVARD EL REFUGIO","21320","","FLORIDO I","22244","TIJUANA, Tijuana, BAJA CALIFORNIA","6644773776","","","Fijo","-116.88017869","32.46151672","","",""
"318","8312987","BOUTIQUE ANGELLA","","Comercio al por menor de ropa, excepto de bebé y lencería","0 a 5 personas","BOULEVARD","BOULEVARD EL REFUGIO","21320","","FLORIDO I","22244","TIJUANA, Tijuana, BAJA CALIFORNIA","6644773776","","","Fijo","-116.88028943","32.46150476","","",""
"319","83186","BOUTIQUE ANTARA","","Comercio al por menor de ropa, excepto de bebé y lencería","0 a 5 personas","CALZADA","FRANCISCO L. MONTEJANO","1741","","PROFESORES ESTATALES","21280","MEXICALI, Mexicali, BAJA CALIFORNIA","","","","Fijo","-115.45234740","32.63382028","","",""
"320","6948198","BOUTIQUE ARELI D MODA","","Comercio al por menor de ropa, excepto de bebé y lencería","0 a 5 personas","CALLE","ARTICULO 27 CONSTITUCIONAL","183","","CONSTITUCION","22707","PLAYAS DE ROSARITO, Playas de Rosarito, BAJA CALIFORNIA","","","","Fijo","-117.05313077","32.36606686","","",""
"321","140144","BOUTIQUE ARISHAS","","Comercio al por menor de ropa, excepto de bebé y lencería","0 a 5 personas","CARRETERA","TRANSPENINSULAR","308","","LAZARO CARDENAS","22930","LÁZARO CÁRDENAS, Ensenada, BAJA CALIFORNIA","6161652054","","","Fijo","-115.93103382","30.52619200","CENTRO Y PLAZA COMERCIAL","PLAZA GEOGANY","308"
"322","8362271","BOUTIQUE ARTEMISA","","Comercio al por menor de ropa, excepto de bebé y lencería","0 a 5 personas","AVENIDA","AVENIDA DE LAS AGUAS","","","VILLA DEL SOL","22205","TIJUANA, Tijuana, BAJA CALIFORNIA","","","","Fijo","-116.85691809","32.50161940","","",""
"323","7368545","BOUTIQUE AVENIDA PARIS","","Comercio al por menor de ropa, excepto de bebé y lencería","0 a 5 personas","AVENIDA","AVENIDA DE LAS AGUAS","","","VILLA DEL SOL","22205","TIJUANA, Tijuana, BAJA CALIFORNIA","","","","Fijo","-116.85200946","32.50054158","","",""
"324","7344592","BOUTIQUE AY GUEY","PLERSA SA DE CV","Comercio al por menor de ropa, excepto de bebé y lencería","0 a 5 personas","OTRO (ESPECIFIQUE)","NINGUNO","","","NUEVA TIJUANA","22435","TIJUANA, Tijuana, BAJA CALIFORNIA","","","","Fijo","-116.97683185","32.54566003","","",""
"325","118246","BOUTIQUE AZUL","","Comercio al por menor de ropa, excepto de bebé y lencería","0 a 5 personas","BOULEVARD","AGUA CALIENTE","221","","CENTRO","22100","TIJUANA, Tijuana, BAJA CALIFORNIA","","ROBERTADURAZO@LIVE.COM","","Fijo","-117.02872540","32.52309822","","",""
"326","89093","BOUTIQUE BARBARELLA","","Comercio al por menor de ropa, excepto de bebé y lencería","0 a 5 personas","CALZADA","CALZADA DE LAS AMERICAS","","12","DIF MUNICIPAL","21240","MEXICALI, Mexicali, BAJA CALIFORNIA","6865645646","","","Fijo","-115.41587371","32.65680108","","",""
"327","9078592","BOUTIQUE BEBA NIÑAS MODA INFANTIL","","Comercio al por menor de ropa, excepto de bebé y lencería","0 a 5 personas","AVENIDA","5 DE MAYO","79","","PREDIOS URBANOS ROSARITO","22703","PLAYAS DE ROSARITO, Playas de Rosarito, BAJA CALIFORNIA","","","","Fijo","-117.05948063","32.35082134","","",""
"328","8727959","BOUTIQUE BELISSIMA","","Comercio al por menor de ropa, excepto de bebé y lencería","0 a 5 personas","CALLE","CATARATAS DEL NIAGARA","","","GRAN HACIENDA","21000","MEXICALI, Mexicali, BAJA CALIFORNIA","","","","Fijo","-115.48854204","32.61267826","","",""
"329","8319672","BOUTIQUE BELLE","","Comercio al por menor de ropa, excepto de bebé y lencería","0 a 5 personas","CALZADA","CUAUHTEMOC (AVIACION)","974","7","PROHOGAR","21240","MEXICALI, Mexicali, BAJA CALIFORNIA","","","","Fijo","-115.43214123","32.65838276","CENTRO Y PLAZA COMERCIAL","PLAZA AVIACION","7"
"330","8485951","BOUTIQUE BLOOM","BOUTIQUES DEL NOROESTE S DE RL DE CV","Comercio al por menor de ropa, excepto de bebé y lencería","0 a 5 personas","BOULEVARD","GUSTAVO DIAZ ORDAZ","15742","3","SIGLO XXI","22115","TIJUANA, Tijuana, BAJA CALIFORNIA","6646892379","BLOOM.SIGLOXXI@ROVIROSA.MX","","Fijo","-116.94558185","32.48597149","","",""
"331","100053","BOUTIQUE BM","","Comercio al por menor de ropa, excepto de bebé y lencería","0 a 5 personas","CALLE","LIBRAMIENTO ESCRITORES","","","VILLAS DEL REAL 2DA SECC","22785","ENSENADA, Ensenada, BAJA CALIFORNIA","","","","Fijo","-116.58586750","31.78786091","","",""
"332","8551946","BOUTIQUE BOCHEL","","Comercio al por menor de ropa, excepto de bebé y lencería","0 a 5 personas","AVENIDA","ALLENDE","7141","","INDEPENDENCIA","22055","TIJUANA, Tijuana, BAJA CALIFORNIA","","","","Fijo","-117.04806135","32.52666097","","",""
"333","114999","BOUTIQUE CAMILA","","Comercio al por menor de ropa, excepto de bebé y lencería","0 a 5 personas","AVENIDA","CONSTITUCION","929","44","ZONA CENTRO","22000","TIJUANA, Tijuana, BAJA CALIFORNIA","","","","Fijo","-117.03847963","32.53356248","CENTRO Y PLAZA COMERCIAL","PLAZA CONSTITUCION","44"
"334","6958929","BOUTIQUE CAPRICHO","","Comercio al por menor de ropa, excepto de bebé y lencería","0 a 5 personas","CALLE","MIGUEL F. MARTINEZ (D)","0","0","ZONA CENTRO","22000","TIJUANA, Tijuana, BAJA CALIFORNIA","","","","Fijo","-117.04165215","32.53490978","","",""
"335","6481846","BOUTIQUE CAPRICHOS","","Comercio al por menor de ropa, excepto de bebé y lencería","0 a 5 personas","CALLE","NINGUNO","","","EL ROSARIO DE ARRIBA","22960","EL ROSARIO DE ARRIBA, Ensenada, BAJA CALIFORNIA","","","","Fijo","-115.71709749","30.06605563","","",""
"336","7633731","BOUTIQUE CAPRICHOS","","Comercio al por menor de ropa, excepto de bebé y lencería","0 a 5 personas","CARRETERA","TRANSPENINSULAR","","","SAN VICENTE","22900","SAN VICENTE, Ensenada, BAJA CALIFORNIA","","","","Fijo","-116.25062978","31.32777519","","",""
